,zpid,address,zipcode,latitude,longitude,beds,baths,area,dateSold,yearBuilt,lotSize,zestimate,sellingPrice,sellerAgent,sellerAgentUrl,buyerAgent,buyerAgentUrl,listedAt,firstListingPrice,timesListed,zEstimate_at_listing,zEstimate_date,url
0,15573428,"1426 James Ave, Redwood City, CA 94062",94062,37.476478,-122.244118,4.0,2.0,2020.0,2020-08-26 00:00:00,1936,5900.0,1998053.0,1998000.0,,,Catherine Hendricks,https://www.zillow.com/profile/TheFrenchrealtor/,2020-07-10 10:57:00,1998000.0,1,1297518.0,2020-06-30,https://www.zillow.com/homedetails/1426-James-Ave-Redwood-City-CA-94062/15573428_zpid/
1,15573882,"1901 Vera Ave, Redwood City, CA 94061",94061,37.468688,-122.242098,2.0,1.0,1090.0,2020-08-26 00:00:00,1950,6390.0,1376036.0,1376000.0,,,,,2020-07-30 16:09:00,1320000.0,1,1295281.0,2020-06-30,https://www.zillow.com/homedetails/1901-Vera-Ave-Redwood-City-CA-94061/15573882_zpid/
2,15573686,"18 Eagle Hill Ter, Redwood City, CA 94062",94062,37.474944,-122.242416,3.0,3.0,1490.0,2020-08-25 08:00:00,1949,8000.0,1860049.0,1860000.0,,,Wendi Selig-Aimonetti,https://www.zillow.com/profile/wendi596/,2020-07-26 09:54:00,1595000.0,1,1592481.0,2020-06-30,https://www.zillow.com/homedetails/18-Eagle-Hill-Ter-Redwood-City-CA-94062/15573686_zpid/
3,15573591,"401 Quartz St, Redwood City, CA 94062",94062,37.474868,-122.243548,4.0,3.0,2348.0,2020-08-24 15:00:00,1936,7975.0,2300092.0,2300000.0,,,Alison Williams,https://www.zillow.com/profile/awilliamsrwc/,2020-06-15 10:43:00,2488000.0,1,2222403.0,2020-05-31,https://www.zillow.com/homedetails/401-Quartz-St-Redwood-City-CA-94062/15573591_zpid/
4,15572485,"923 Glennan Dr, Redwood City, CA 94061",94061,37.459523,-122.252256,3.0,3.0,2252.0,2020-08-24 15:00:00,2016,6629.0,2455098.0,2455000.0,,,Carol Reen,https://www.zillow.com/profile/carolreensf/,2020-07-09 10:31:00,2450000.0,1,2106123.0,2020-06-30,https://www.zillow.com/homedetails/923-Glennan-Dr-Redwood-City-CA-94061/15572485_zpid/
5,15574626,"431 Upton St, Redwood City, CA 94062",94062,37.472266,-122.248416,2.0,2.0,920.0,2020-08-24 00:00:00,1994,2748.0,1120044.0,1120000.0,,,,,2020-07-10 19:58:00,1148000.0,1,1073795.0,2020-06-30,https://www.zillow.com/homedetails/431-Upton-St-Redwood-City-CA-94062/15574626_zpid/
6,15572288,"3752 Bret Harte Dr, Redwood City, CA 94061",94061,37.458945,-122.25478,3.0,3.0,1700.0,2020-08-24 00:00:00,1956,7927.0,2050082.0,2050000.0,,,Bobby Ohadi,https://www.zillow.com/profile/BobbyOhadi/,,,0,1815338.0,2020-07-31,https://www.zillow.com/homedetails/3752-Bret-Harte-Dr-Redwood-City-CA-94061/15572288_zpid/
7,15572239,"3714 Red Oak Way, Redwood City, CA 94061",94061,37.460051,-122.254711,3.0,3.0,1510.0,2020-08-21 15:00:00,1956,7701.0,1980118.0,1980000.0,,,Lynn Carteris,https://www.zillow.com/profile/LynnCarteris/,2020-07-14 08:12:00,1899000.0,1,1727628.0,2020-06-30,https://www.zillow.com/homedetails/3714-Red-Oak-Way-Redwood-City-CA-94061/15572239_zpid/
8,15573457,"438 Avenue Del Ora, Redwood City, CA 94062",94062,37.475546,-122.243195,2.0,2.0,1330.0,2020-08-21 00:00:00,1931,6799.0,1255075.0,1255075.0,Alex Lehr,https://www.zillow.com/profile/Alex-Lehr/,,,2020-01-27 10:53:00,1395000.0,2,1519850.0,2019-12-31,https://www.zillow.com/homedetails/438-Avenue-Del-Ora-Redwood-City-CA-94062/15573457_zpid/
9,15572234,"602 Glennan Dr, Redwood City, CA 94061",94061,37.460832,-122.254958,3.0,3.0,1770.0,2020-08-21 00:00:00,1956,8363.0,1950117.0,1950000.0,,,,,2020-07-16 11:04:00,1850000.0,1,1850325.0,2020-06-30,https://www.zillow.com/homedetails/602-Glennan-Dr-Redwood-City-CA-94061/15572234_zpid/
10,15573768,"632 Ruby St, Redwood City, CA 94061",94061,37.470606,-122.242899,3.0,1.0,1170.0,2020-08-21 00:00:00,1950,5222.0,1375793.0,1375711.0,,,Peter Hopelain,https://www.zillow.com/profile/Peterhopelain/,2020-07-08 10:16:00,1246875.0,1,1409046.0,2020-06-30,https://www.zillow.com/homedetails/632-Ruby-St-Redwood-City-CA-94061/15573768_zpid/
11,15572627,"956 Edgecliff Way, Redwood City, CA 94061",94061,37.455032,-122.257901,4.0,3.0,2494.0,2020-08-20 00:00:00,1959,7736.0,2237649.0,2237500.0,,,,,2020-05-29 12:28:00,2450000.0,1,2272019.0,2020-04-30,https://www.zillow.com/homedetails/956-Edgecliff-Way-Redwood-City-CA-94061/15572627_zpid/
12,15573872,"608 Myrtle St, Redwood City, CA 94061",94061,37.474433,-122.239119,3.0,2.5,1750.0,2020-08-20 00:00:00,1952,5662.0,1500100.0,1500000.0,Bob Bredel,https://www.zillow.com/profile/Bob-Bredel/,Reali Team,https://www.zillow.com/profile/RealiTeam/,2020-07-09 20:08:00,1598000.0,1,1671723.0,2020-06-30,https://www.zillow.com/homedetails/608-Myrtle-St-Redwood-City-CA-94061/15573872_zpid/
13,15574801,"554 Lancaster Way, Redwood City, CA 94062",94062,37.469969,-122.249037,3.0,2.0,1750.0,2020-08-19 00:00:00,1947,9578.0,1851135.0,1851000.0,Maxine Dumas,https://www.zillow.com/profile/maxine_dumas/,Kevin Ames,https://www.zillow.com/profile/ames-kevint/,2020-07-17 10:05:00,1749950.0,1,1789074.0,2020-06-30,https://www.zillow.com/homedetails/554-Lancaster-Way-Redwood-City-CA-94062/15574801_zpid/
14,15591052,"1616 Maryland St, Redwood City, CA 94061",94061,37.455937,-122.23885,3.0,2.0,1960.0,2020-08-19 00:00:00,1951,6216.0,1900139.0,1900000.0,Kim Copher,https://www.zillow.com/profile/Kim-Copher/,,,2020-07-10 13:25:00,1798000.0,1,2002271.0,2020-06-30,https://www.zillow.com/homedetails/1616-Maryland-St-Redwood-City-CA-94061/15591052_zpid/
15,15570752,"171 Lakeview Way, Emerald Hills, CA 94062",94062,37.473324,-122.275969,3.0,3.0,1675.0,2020-08-17 15:00:00,1928,8066.0,1785154.0,1785000.0,,,Hans Vilaivan,https://www.zillow.com/profile/Hans-Vilaivan/,2020-07-10 00:17:00,1695000.0,1,1713240.0,2020-06-30,https://www.zillow.com/homedetails/171-Lakeview-Way-Emerald-Hills-CA-94062/15570752_zpid/
16,15574027,"1106 Junipero Ave, Redwood City, CA 94061",94061,37.468158,-122.238953,3.0,2.0,1550.0,2020-08-14 00:00:00,1946,5144.0,1589168.0,1589000.0,Vicky Costantini,https://www.zillow.com/profile/vcostantini/,Lana Morin Pierce,https://www.zillow.com/profile/LanaMorinPierce/,2020-05-09 08:49:00,1620000.0,1,1653479.0,2020-04-30,https://www.zillow.com/homedetails/1106-Junipero-Ave-Redwood-City-CA-94061/15574027_zpid/
17,15570728,"243 Ferndale Way, Emerald Hills, CA 94062",94062,37.471687,-122.27586,4.0,3.0,2580.0,2020-08-13 15:00:00,1928,16000.0,1190932.0,1100000.0,Alex Lehr,https://www.zillow.com/profile/Alex-Lehr/,Tim Heffernan,https://www.zillow.com/profile/SFAdvisor/,2020-05-15 19:45:00,1395000.0,1,1945999.0,2019-12-31,https://www.zillow.com/homedetails/243-Ferndale-Way-Emerald-Hills-CA-94062/15570728_zpid/
18,15573365,"203 Saint Francis St, Redwood City, CA 94062",94062,37.473957,-122.247216,3.0,2.0,1720.0,2020-08-12 00:00:00,1949,6499.0,1705204.0,1705000.0,Danny Burgess,https://www.zillow.com/profile/Doors-Advisors/,Alexander Nichols,https://www.zillow.com/profile/AlexanderNichols650/,2020-07-14 06:32:00,1648000.0,1,1679924.0,2020-06-30,https://www.zillow.com/homedetails/203-Saint-Francis-St-Redwood-City-CA-94062/15573365_zpid/
19,15573705,"456 Myrtle St, Redwood City, CA 94062",94062,37.476095,-122.241701,4.0,3.0,2700.0,2020-08-11 08:00:00,2020,6699.0,3200383.0,3200000.0,Disen Cai,https://www.zillow.com/profile/Disen-Cai/,,,2020-07-10 09:26:00,3188000.0,1,1550727.0,2020-06-30,https://www.zillow.com/homedetails/456-Myrtle-St-Redwood-City-CA-94062/15573705_zpid/
20,15574393,"731 Esther Ln, Redwood City, CA 94062",94062,37.475131,-122.253874,5.0,5.0,3080.0,2020-08-11 08:00:00,1969,14113.0,2600328.0,2600000.0,Adriana Trenev,https://www.zillow.com/profile/AdrianaTrenev1/,,,2020-06-08 14:07:00,2627000.0,1,2392913.0,2020-05-31,https://www.zillow.com/homedetails/731-Esther-Ln-Redwood-City-CA-94062/15574393_zpid/
21,15589586,"541 Oak Park Way, Emerald Hills, CA 94062",94062,37.463289,-122.273841,4.0,4.0,3780.0,2020-08-11 00:00:00,1989,10018.0,2800353.0,2800000.0,Vicky Costantini,https://www.zillow.com/profile/vcostantini/,,,,,0,14869322.0,2020-07-31,https://www.zillow.com/homedetails/541-Oak-Park-Way-Emerald-Hills-CA-94062/15589586_zpid/
22,15573927,"1181 Fairview Ave, Redwood City, CA 94061",94061,37.465493,-122.239255,2.0,2.0,880.0,2020-08-10 00:00:00,1950,6250.0,1299172.0,1299000.0,Cesar Cervantes,https://www.zillow.com/profile/cesar-cervantes/,,,2020-07-15 11:58:00,1299000.0,1,1275081.0,2020-06-30,https://www.zillow.com/homedetails/1181-Fairview-Ave-Redwood-City-CA-94061/15573927_zpid/
23,15573754,"1919 Madison Ave, Redwood City, CA 94061",94061,37.469493,-122.243265,3.0,2.0,1340.0,2020-08-06 00:00:00,1947,5998.0,1675267.0,1675000.0,Karen Kovacs,https://www.zillow.com/profile/karenzrealtor/,,,2020-07-16 12:39:00,1549000.0,1,1560744.0,2020-06-30,https://www.zillow.com/homedetails/1919-Madison-Ave-Redwood-City-CA-94061/15573754_zpid/
24,15590009,"3988 Brookline Way, Emerald Hills, CA 94062",94062,37.459562,-122.264396,3.0,2.0,1414.0,2020-08-04 08:00:00,1948,7701.0,1826303.0,1826000.0,,,Allen Nazari,https://www.zillow.com/profile/Allen-Nazari/,2020-07-03 10:04:00,1595000.0,1,1498944.0,2020-06-30,https://www.zillow.com/homedetails/3988-Brookline-Way-Emerald-Hills-CA-94062/15590009_zpid/
25,15571703,"823 Mohican Way, Redwood City, CA 94062",94062,37.46053,-122.258525,3.0,3.0,1690.0,2020-07-30 00:00:00,1966,8799.0,1866204.0,1865820.0,Jeri Richardson-Daines,https://www.zillow.com/profile/user3545352/,Loren Dakin,https://www.zillow.com/profile/loren805/,2020-06-25 21:14:00,1699000.0,1,1856946.0,2020-05-31,https://www.zillow.com/homedetails/823-Mohican-Way-Redwood-City-CA-94062/15571703_zpid/
26,15573752,"705 Topaz St, Redwood City, CA 94061",94061,37.469303,-122.243505,2.0,1.0,1280.0,2020-07-29 00:00:00,1948,4800.0,1285273.0,1285000.0,John Shroyer,https://www.zillow.com/profile/JohnShroyer/,Sergio Ascencio,https://www.zillow.com/profile/Sergio-Ascencio/,,,0,1472453.0,2020-06-30,https://www.zillow.com/homedetails/705-Topaz-St-Redwood-City-CA-94061/15573752_zpid/
27,15570996,"349 Lakeview Way, Emerald Hills, CA 94062",94062,37.471655,-122.270531,4.0,3.0,2450.0,2020-07-28 15:00:00,2001,10149.0,2124465.0,2124000.0,Laura Bertolacci,https://www.zillow.com/profile/Laura-Bertolacci/,Brandon Stovall,https://www.zillow.com/profile/brandon-stovall/,2020-06-19 17:57:00,2148000.0,1,2273630.0,2020-05-31,https://www.zillow.com/homedetails/349-Lakeview-Way-Emerald-Hills-CA-94062/15570996_zpid/
28,15590635,"1528 Mitchell Way, Redwood City, CA 94061",94061,37.455351,-122.244332,3.0,2.0,1250.0,2020-07-27 15:00:00,1954,6137.0,1710385.0,1710000.0,John Shroyer,https://www.zillow.com/profile/JohnShroyer/,Brian Tran,https://www.zillow.com/profile/briantransf/,2020-06-25 13:52:00,1695000.0,1,1680082.0,2020-05-31,https://www.zillow.com/homedetails/1528-Mitchell-Way-Redwood-City-CA-94061/15590635_zpid/
29,15575312,"3008 Mcgarvey Ave, Redwood City, CA 94061",94061,37.46191,-122.24884,3.0,2.0,1200.0,2020-07-27 00:00:00,1954,6756.0,1600360.0,1600000.0,Julie Hadidi,https://www.zillow.com/profile/julie-hadidi/,Peter Hopelain,https://www.zillow.com/profile/Peterhopelain/,2020-05-21 15:45:00,1698000.0,1,1646068.0,2020-04-30,https://www.zillow.com/homedetails/3008-Mcgarvey-Ave-Redwood-City-CA-94061/15575312_zpid/
30,82957649,"3079 Oak Knoll Dr, Redwood City, CA 94062",94062,37.475334,-122.256181,5.0,6.0,3615.0,2020-07-27 00:00:00,1940,7291.0,2950665.0,2950000.0,Dan Gilmartin,https://www.zillow.com/profile/Dan-Gilmartin/,Gilson Team,https://www.zillow.com/profile/Gilson-Team/,2020-03-06 11:07:00,2998000.0,1,1719694.0,2020-02-29,https://www.zillow.com/homedetails/3079-Oak-Knoll-Dr-Redwood-City-CA-94062/82957649_zpid/
31,15573524,"532 Ruby St, Redwood City, CA 94062",94062,37.472012,-122.244714,2.0,1.0,980.0,2020-07-27 00:00:00,1937,4800.0,1380311.0,1380000.0,,,Cindy Lunk,https://www.zillow.com/profile/cindylunk/,2020-06-24 20:49:00,1349000.0,1,1276619.0,2020-05-31,https://www.zillow.com/homedetails/532-Ruby-St-Redwood-City-CA-94062/15573524_zpid/
32,63132154,"7 Monticello Ct, Woodside, CA 94062",94062,37.450187,-122.277166,4.0,4.0,4210.0,2020-07-24 00:00:00,2005,23234.0,4025986.0,4025000.0,,,Cindy Liebsch,https://www.zillow.com/profile/cindy9352/,2020-06-15 12:53:00,3995000.0,1,3279012.0,2020-05-31,https://www.zillow.com/homedetails/7-Monticello-Ct-Woodside-CA-94062/63132154_zpid/
33,15590051,"880 Bayview Way, Redwood City, CA 94062",94062,37.457806,-122.263837,3.0,3.0,1780.0,2020-07-24 00:00:00,2004,6499.0,1400343.0,1400000.0,,,Sandy and Joe,https://www.zillow.com/profile/sandyandjoe/,2020-06-09 13:06:00,1549000.0,1,1935373.0,2020-05-31,https://www.zillow.com/homedetails/880-Bayview-Way-Redwood-City-CA-94062/15590051_zpid/
34,15570999,"239 Hillsdale Way, Emerald Hills, CA 94062",94062,37.469759,-122.272378,4.0,4.0,3260.0,2020-07-24 00:00:00,1990,14893.0,2505614.0,2505000.0,,,Carol Bennett,https://www.zillow.com/profile/Bennettsrealty/,2020-06-18 09:13:00,2195000.0,1,2731769.0,2020-05-31,https://www.zillow.com/homedetails/239-Hillsdale-Way-Emerald-Hills-CA-94062/15570999_zpid/
35,15559260,"2000 Edgewood Rd, Redwood City, CA 94062",94062,37.475964,-122.269501,4.0,3.0,2650.0,2020-07-24 00:00:00,1961,41800.0,2675655.0,2675000.0,,,Robert Hughes,https://www.zillow.com/profile/rebob19/,2020-04-01 09:11:00,2788000.0,1,2695311.0,2020-03-31,https://www.zillow.com/homedetails/2000-Edgewood-Rd-Redwood-City-CA-94062/15559260_zpid/
36,15572545,"3790 Country Club Dr, Redwood City, CA 94061",94061,37.456167,-122.252657,4.0,3.0,2380.0,2020-07-21 00:00:00,1957,7000.0,2200582.0,2200000.0,,,,,,,0,2244844.0,2020-06-30,https://www.zillow.com/homedetails/3790-Country-Club-Dr-Redwood-City-CA-94061/15572545_zpid/
37,15575303,"2819 Carson St, Redwood City, CA 94061",94061,37.458537,-122.242233,3.0,2.0,1380.0,2020-07-20 15:00:00,1951,8833.0,1745473.0,1745000.0,Cassandra Smith,https://www.zillow.com/profile/Cassandra-Smith1/,Bobby Ohadi,https://www.zillow.com/profile/BobbyOhadi/,2020-06-19 14:23:00,1550000.0,1,1720232.0,2020-05-31,https://www.zillow.com/homedetails/2819-Carson-St-Redwood-City-CA-94061/15575303_zpid/
38,15571710,"3808 Jefferson Ave, Emerald Hills, CA 94062",94062,37.460489,-122.257429,4.0,2.0,1900.0,2020-07-20 15:00:00,1966,8446.0,1870507.0,1870000.0,Alison Williams,https://www.zillow.com/profile/awilliamsrwc/,"Cory Cooper, Realtor",https://www.zillow.com/profile/Cory-Cooper/,2020-06-19 09:38:00,1795000.0,1,1999034.0,2020-05-31,https://www.zillow.com/homedetails/3808-Jefferson-Ave-Emerald-Hills-CA-94062/15571710_zpid/
39,15574802,"542 Lancaster Way, Redwood City, CA 94062",94062,37.470148,-122.249273,2.0,1.0,1100.0,2020-07-20 15:00:00,1948,10410.0,1400379.0,1400000.0,Team Bedbury,https://www.zillow.com/profile/Bedbury-Group/,Team Bedbury,https://www.zillow.com/profile/Bedbury-Group/,2020-06-25 14:32:00,1275000.0,1,1635680.0,2020-05-31,https://www.zillow.com/homedetails/542-Lancaster-Way-Redwood-City-CA-94062/15574802_zpid/
40,15597544,"232 Highland Ter, Woodside, CA 94062",94062,37.439717,-122.256509,2.0,2.0,1380.0,2020-07-16 00:00:00,1929,14161.0,2350699.0,2350000.0,Jim Milton,https://www.zillow.com/profile/LoveWoodside/,Andrea Kohler,https://www.zillow.com/profile/Andrea-Kohler/,2020-04-01 17:39:00,2495000.0,1,1918449.0,2020-03-31,https://www.zillow.com/homedetails/232-Highland-Ter-Woodside-CA-94062/15597544_zpid/
41,15589577,"523 Oak Park Way, Emerald Hills, CA 94062",94062,37.462863,-122.275106,3.0,3.0,1990.0,2020-07-16 00:00:00,1998,6800.0,1920371.0,1919800.0,Jim Tierney,https://www.zillow.com/profile/jmtierney/,Camille Eder,https://www.zillow.com/profile/Camille-eder/,2020-06-11 14:36:00,1885000.0,1,2029563.0,2020-05-31,https://www.zillow.com/homedetails/523-Oak-Park-Way-Emerald-Hills-CA-94062/15589577_zpid/
42,15591120,"1581 Fernside St, Redwood City, CA 94061",94061,37.455434,-122.240421,3.0,2.0,1715.0,2020-07-13 15:00:00,1954,9378.0,1925610.0,1925000.0,Matthew Rogers,https://www.zillow.com/profile/user0573165/,,,2020-06-24 08:30:00,1699000.0,1,1726694.0,2020-05-31,https://www.zillow.com/homedetails/1581-Fernside-St-Redwood-City-CA-94061/15591120_zpid/
43,15574838,"828 Canyon Rd, Redwood City, CA 94062",94062,37.468695,-122.251649,4.0,2.0,2000.0,2020-07-13 15:00:00,1953,7548.0,1843584.0,1843000.0,Elaine White,https://www.zillow.com/profile/ElaineWhiteRealtor/,Natasha Nikolaeva,https://www.zillow.com/profile/NatashaYourRealtor/,2020-03-27 12:04:00,1895000.0,1,1887472.0,2020-02-29,https://www.zillow.com/homedetails/828-Canyon-Rd-Redwood-City-CA-94062/15574838_zpid/
44,15589859,"655 Glencrag Way, Woodside, CA 94062",94062,37.455056,-122.275696,3.0,2.0,2585.0,2020-07-13 00:00:00,1928,43560.0,3301046.0,3300000.0,Helen and Brad Miller,https://www.zillow.com/profile/HelenBradMiller/,Katharine Carroll,https://www.zillow.com/profile/ThereSolveGroup/,2020-02-08 14:08:00,3795000.0,1,3669004.0,2020-01-31,https://www.zillow.com/homedetails/655-Glencrag-Way-Woodside-CA-94062/15589859_zpid/
45,15571082,"562 Lakeview Way, Emerald Hills, CA 94062",94062,37.469124,-122.269209,3.0,2.0,1110.0,2020-07-07 08:00:00,1947,13708.0,1726592.0,1726000.0,Judy Citron,https://www.zillow.com/profile/Judy-Citron/,Clara Lee,https://www.zillow.com/profile/Clara-Lee/,2020-06-05 10:29:00,1649000.0,1,1446188.0,2020-05-31,https://www.zillow.com/homedetails/562-Lakeview-Way-Emerald-Hills-CA-94062/15571082_zpid/
46,15590435,"1028 Silver Hill Rd, Redwood City, CA 94061",94061,37.452402,-122.25389,4.0,3.0,2580.0,2020-07-02 00:00:00,1965,19998.0,2410936.0,2410000.0,,,,,2020-03-13 22:36:00,2699000.0,1,2700372.0,2020-02-29,https://www.zillow.com/homedetails/1028-Silver-Hill-Rd-Redwood-City-CA-94061/15590435_zpid/
47,15590389,"22 Somerset Pl, Woodside, CA 94062",94062,37.445958,-122.269563,5.0,4.0,4020.0,2020-07-01 00:00:00,1990,58501.0,3401344.0,3400000.0,,,Judy Citron,https://www.zillow.com/profile/Judy-Citron/,2020-05-24 11:56:00,3495000.0,1,4577080.0,2020-04-30,https://www.zillow.com/homedetails/22-Somerset-Pl-Woodside-CA-94062/15590389_zpid/
48,15572334,"902 Castle Hill Rd, Redwood City, CA 94061",94061,37.460133,-122.252427,4.0,2.5,1630.0,2020-06-30 15:00:00,1956,9191.0,1630663.0,1630000.0,Stacy Mardesich,https://www.zillow.com/profile/stacymardesich/,Pam Tyson,https://www.zillow.com/profile/tysonsales/,,,0,1782264.0,2020-06-30,https://www.zillow.com/homedetails/902-Castle-Hill-Rd-Redwood-City-CA-94061/15572334_zpid/
49,15573777,"2809 Jefferson Ave, Redwood City, CA 94062",94062,37.470887,-122.243355,2.0,2.0,850.0,2020-06-30 00:00:00,1930,6198.0,1145465.0,1145000.0,,,Jerry Rice Jr,https://www.zillow.com/profile/JerryRiceJr/,2020-04-28 16:07:00,1195000.0,1,1315818.0,2020-03-31,https://www.zillow.com/homedetails/2809-Jefferson-Ave-Redwood-City-CA-94062/15573777_zpid/
50,15572468,"927 Castle Hill Rd, Redwood City, CA 94061",94061,37.460011,-122.251546,3.0,3.0,1630.0,2020-06-30 00:00:00,1956,8925.0,1850752.0,1850000.0,,,Alison Williams,https://www.zillow.com/profile/awilliamsrwc/,2020-05-28 20:58:00,1749000.0,1,1921256.0,2020-04-30,https://www.zillow.com/homedetails/927-Castle-Hill-Rd-Redwood-City-CA-94061/15572468_zpid/
51,15574859,"3527 Highland Ave, Redwood City, CA 94062",94062,37.468224,-122.251616,4.0,3.0,1890.0,2020-06-29 08:00:00,1962,6969.0,1900772.0,1900000.0,Slava Nezhichkin,https://www.zillow.com/profile/Slava-Nezhichkin/,Katharine Carroll,https://www.zillow.com/profile/ThereSolveGroup/,2020-06-03 10:56:00,1849000.0,1,2001497.0,2020-05-31,https://www.zillow.com/homedetails/3527-Highland-Ave-Redwood-City-CA-94062/15574859_zpid/
52,15589699,"528 Lakemead Way, Emerald Hills, CA 94062",94062,37.461913,-122.265294,4.0,3.0,2380.0,2020-06-29 00:00:00,1969,9308.0,2246738.0,2245800.0,John Shroyer,https://www.zillow.com/profile/JohnShroyer/,,,2020-05-15 12:24:00,2350000.0,1,2214014.0,2020-04-30,https://www.zillow.com/homedetails/528-Lakemead-Way-Emerald-Hills-CA-94062/15589699_zpid/
53,15574010,"1027 Ruby St, Redwood City, CA 94061",94061,37.468459,-122.240041,2.0,1.0,1140.0,2020-06-29 00:00:00,1947,5641.0,1420593.0,1420000.0,Leslie Woods,https://www.zillow.com/profile/Leslie-Woods/,,,2020-05-31 20:40:00,1325000.0,1,1192480.0,2020-05-31,https://www.zillow.com/homedetails/1027-Ruby-St-Redwood-City-CA-94061/15574010_zpid/
54,15572283,"3716 Bret Harte Dr, Redwood City, CA 94061",94061,37.459636,-122.253908,4.0,3.0,2154.0,2020-06-26 00:00:00,1956,7631.0,2451106.0,2450000.0,,,Arthur Sharif,https://www.zillow.com/profile/Arthur-Sharif/,2020-05-22 12:40:00,1298000.0,1,2185629.0,2020-04-30,https://www.zillow.com/homedetails/3716-Bret-Harte-Dr-Redwood-City-CA-94061/15572283_zpid/
55,15571077,"11 W Summit Dr, Emerald Hills, CA 94062",94062,37.469888,-122.267807,3.0,3.0,2480.0,2020-06-24 00:00:00,1948,9165.0,2367731.0,2460000.0,,,,,2020-05-29 12:56:00,2188000.0,1,2040452.0,2020-04-30,https://www.zillow.com/homedetails/11-W-Summit-Dr-Emerald-Hills-CA-94062/15571077_zpid/
56,15571578,"3828 Hamilton Way, Redwood City, CA 94062",94062,37.462695,-122.261362,5.0,3.5,3772.0,2020-06-19 15:00:00,1949,14078.0,3157172.0,3155000.0,,,Norm Fung,https://www.zillow.com/profile/Norm-Fung-SF-Realtor/,2020-03-20 13:26:00,3599000.0,1,3373075.0,2020-02-29,https://www.zillow.com/homedetails/3828-Hamilton-Way-Redwood-City-CA-94062/15571578_zpid/
57,15573930,"1169 Fairview Ave, Redwood City, CA 94061",94061,37.465782,-122.239615,3.0,2.0,1765.0,2020-06-19 00:00:00,1950,6250.0,1723992.0,1735000.0,Cesar Cervantes,https://www.zillow.com/profile/cesar-cervantes/,Loveless Team,https://www.zillow.com/profile/LovelessLuxuryRE/,2020-05-17 20:28:00,1625000.0,1,1783807.0,2020-04-30,https://www.zillow.com/homedetails/1169-Fairview-Ave-Redwood-City-CA-94061/15573930_zpid/
58,15597529,"111 Alta Mesa Rd, Woodside, CA 94062",94062,37.44129,-122.255713,4.0,3.0,2185.0,2020-06-19 00:00:00,1959,11931.0,2551351.0,2550000.0,Deborah Kehrberg,https://www.zillow.com/profile/deborah790/,,,2020-03-13 15:10:00,2695000.0,1,2411997.0,2020-02-29,https://www.zillow.com/homedetails/111-Alta-Mesa-Rd-Woodside-CA-94062/15597529_zpid/
59,15572735,"901 Emerald Hill Rd, Redwood City, CA 94061",94061,37.457841,-122.255441,4.0,3.0,2300.0,2020-06-19 00:00:00,1957,7701.0,2422005.0,1653000.0,Susan Tanner,https://www.zillow.com/profile/susan-tanner/,,,2020-05-18 13:11:00,1950000.0,1,2136765.0,2020-04-30,https://www.zillow.com/homedetails/901-Emerald-Hill-Rd-Redwood-City-CA-94061/15572735_zpid/
60,15571364,"635 Canyon Rd, Redwood City, CA 94062",94062,37.471798,-122.257694,3.0,2.0,1340.0,2020-06-18 15:00:00,1957,7980.0,1705923.0,1705000.0,Matthew Rogers,https://www.zillow.com/profile/user0573165/,Richard Ruch,https://www.zillow.com/profile/Richard-Ruch/,2020-05-20 06:27:00,1598000.0,1,1295234.0,2020-04-30,https://www.zillow.com/homedetails/635-Canyon-Rd-Redwood-City-CA-94062/15571364_zpid/
61,15573485,"462 Sapphire St, Redwood City, CA 94062",94062,37.472311,-122.246392,3.0,2.0,1690.0,2020-06-18 00:00:00,1949,6242.0,1646698.0,1520000.0,Chet Lane,https://www.zillow.com/profile/chetlane/,Brian Ayer,https://www.zillow.com/profile/brianayer/,2020-05-07 07:38:00,1648000.0,1,1757088.0,2020-04-30,https://www.zillow.com/homedetails/462-Sapphire-St-Redwood-City-CA-94062/15573485_zpid/
62,15575403,"1286 Fernside St, Redwood City, CA 94061",94061,37.458365,-122.24443,3.0,2.0,1851.0,2020-06-16 15:00:00,1951,6272.0,2076193.0,2075000.0,Michael Kaufman,https://www.zillow.com/profile/Michael-Kaufman4/,Team Bedbury,https://www.zillow.com/profile/Bedbury-Group/,2020-05-13 10:49:00,1988888.0,1,1991032.0,2020-04-30,https://www.zillow.com/homedetails/1286-Fernside-St-Redwood-City-CA-94061/15575403_zpid/
63,15571006,"60 W Summit Dr, Emerald Hills, CA 94062",94062,37.468165,-122.272433,2.0,1.0,1390.0,2020-06-16 00:00:00,1947,15799.0,1896068.0,1895000.0,John Shroyer,https://www.zillow.com/profile/JohnShroyer/,,,2020-04-29 15:40:00,1895000.0,1,1655360.0,2020-03-31,https://www.zillow.com/homedetails/60-W-Summit-Dr-Emerald-Hills-CA-94062/15571006_zpid/
64,15575891,"1276 Windsor Way, Redwood City, CA 94061",94061,37.460529,-122.241209,3.0,3.0,1478.0,2020-06-15 08:00:00,1950,6050.0,1735998.0,1735000.0,Vera Crossfield,https://www.zillow.com/profile/vcrossfield/,Barry Gevertz,https://www.zillow.com/profile/Barry-Gevertz/,2020-04-27 18:59:00,1735000.0,1,1804469.0,2020-03-31,https://www.zillow.com/homedetails/1276-Windsor-Way-Redwood-City-CA-94061/15575891_zpid/
65,15571234,"320 Summit Dr, Redwood City, CA 94062",94062,37.468638,-122.265888,3.0,2.0,1780.0,2020-06-12 15:00:00,1956,15002.0,1928273.0,1750000.0,Vicky Costantini,https://www.zillow.com/profile/vcostantini/,Reali Team,https://www.zillow.com/profile/RealiTeam/,2020-05-18 16:46:00,1650000.0,1,1928475.0,2020-04-30,https://www.zillow.com/homedetails/320-Summit-Dr-Redwood-City-CA-94062/15571234_zpid/
66,15573451,"1441 James Ave, Redwood City, CA 94062",94062,37.475924,-122.24436,2.0,1.0,1270.0,2020-06-12 15:00:00,1939,8550.0,1625989.0,1625000.0,Cliff Whearley,https://www.zillow.com/profile/cliffwhearley/,,,2020-04-28 09:04:00,1598000.0,1,1531878.0,2020-03-31,https://www.zillow.com/homedetails/1441-James-Ave-Redwood-City-CA-94062/15573451_zpid/
67,181436789,"320 Summit Dr, Emerald Hills, CA 94062",94062,37.468638,-122.265888,,,,2020-06-11 00:00:00,-1,4965.0,,1750000.0,,,,,,,0,,,https://www.zillow.com/homedetails/320-Summit-Dr-Emerald-Hills-CA-94062/181436789_zpid/
68,15564834,"547 King St, Redwood City, CA 94062",94062,37.476192,-122.238966,3.0,2.0,1600.0,2020-06-08 08:00:00,1922,6499.0,1756146.0,1755000.0,Stephan Marshall,https://www.zillow.com/profile/stephanmarshall/,Adriana Trenev,https://www.zillow.com/profile/AdrianaTrenev1/,2020-05-22 13:46:00,1649000.0,1,1616738.0,2020-04-30,https://www.zillow.com/homedetails/547-King-St-Redwood-City-CA-94062/15564834_zpid/
69,15573635,"529 Quartz St, Redwood City, CA 94062",94062,37.47292,-122.243589,3.0,2.0,1450.0,2020-06-05 00:00:00,1927,7840.0,1526048.0,1525000.0,,,davidohamaoui,https://www.zillow.com/profile/davidohamaoui/,2020-04-23 10:06:00,1548000.0,1,1725189.0,2020-03-31,https://www.zillow.com/homedetails/529-Quartz-St-Redwood-City-CA-94062/15573635_zpid/
70,15591065,"2833 Kensington Rd, Redwood City, CA 94061",94061,37.456475,-122.239476,3.0,1.0,1450.0,2020-06-03 00:00:00,1952,6441.0,1566110.0,1565000.0,Keri Nicholas,https://www.zillow.com/profile/kerinicholas/,,,2020-04-16 18:09:00,1588000.0,1,1514177.0,2020-03-31,https://www.zillow.com/homedetails/2833-Kensington-Rd-Redwood-City-CA-94061/15591065_zpid/
71,15575778,"1083 Alameda De Las Pulgas, Redwood City, CA 94061",94061,37.462981,-122.244902,3.0,2.0,1546.0,2020-06-02 00:00:00,1952,5941.0,1871347.0,1870000.0,,,,,2020-04-12 16:33:00,1964000.0,1,1725242.0,2020-03-31,https://www.zillow.com/homedetails/1083-Alameda-De-Las-Pulgas-Redwood-City-CA-94061/15575778_zpid/
72,15573282,"321 Alameda De Las Pulgas, Redwood City, CA 94062",94062,37.474891,-122.250776,3.0,2.0,1520.0,2020-05-29 15:00:00,1949,5880.0,1329050.0,1360000.0,Bret Fouche,https://www.zillow.com/profile/BretRealEstateTeam/,,,2019-11-21 15:29:00,1500000.0,2,1563285.0,2019-10-31,https://www.zillow.com/homedetails/321-Alameda-De-Las-Pulgas-Redwood-City-CA-94062/15573282_zpid/
73,15570715,"180 Lakeview Way, Emerald Hills, CA 94062",94062,37.473406,-122.277158,3.0,3.0,1846.0,2020-05-29 15:00:00,1946,21780.0,1926523.0,1925000.0,,,Wen Guo,https://www.zillow.com/profile/homesbywen/,2020-04-11 20:09:00,1995000.0,1,2135590.0,2020-03-31,https://www.zillow.com/homedetails/180-Lakeview-Way-Emerald-Hills-CA-94062/15570715_zpid/
74,15593049,"187 Hardwick Rd, Woodside, CA 94062",94062,37.446014,-122.24951,6.0,6.0,7022.0,2020-05-29 00:00:00,2005,43560.0,5392263.0,5388000.0,,,,,2020-02-14 00:38:00,5988000.0,1,7908996.0,2020-01-31,https://www.zillow.com/homedetails/187-Hardwick-Rd-Woodside-CA-94062/15593049_zpid/
75,15572554,"941 Emerald Hill Rd, Redwood City, CA 94061",94061,37.456915,-122.254301,3.0,2.0,1490.0,2020-05-29 00:00:00,1957,7148.0,1691337.0,1690000.0,Francis Rolland,https://www.zillow.com/profile/frolland/,Brad Le,https://www.zillow.com/profile/Brad-Le/,2020-03-23 14:19:00,1748000.0,1,1777238.0,2020-02-29,https://www.zillow.com/homedetails/941-Emerald-Hill-Rd-Redwood-City-CA-94061/15572554_zpid/
76,15570727,"239 Ferndale Way, Emerald Hills, CA 94062",94062,37.471819,-122.276004,3.0,4.0,2800.0,2020-05-28 00:00:00,1926,7840.0,2452440.0,1900000.0,David Young,https://www.zillow.com/profile/David-Young/,,,2020-05-15 13:25:00,1800000.0,1,1704976.0,2020-04-30,https://www.zillow.com/homedetails/239-Ferndale-Way-Emerald-Hills-CA-94062/15570727_zpid/
77,15575292,"1276 Westwood St, Redwood City, CA 94061",94061,37.45915,-122.243631,4.0,2.0,1520.0,2020-05-27 15:00:00,1951,6050.0,1682497.0,1590000.0,Hunter Bergner,https://www.zillow.com/profile/hunterbergner/,Drew Doran,https://www.zillow.com/profile/Drew-Doran7/,2020-04-02 12:11:00,1589000.0,1,1818435.0,2020-03-31,https://www.zillow.com/homedetails/1276-Westwood-St-Redwood-City-CA-94061/15575292_zpid/
78,15590178,"954 Wilmington Way, Emerald Hills, CA 94062",94062,37.454966,-122.264238,3.0,2.5,1850.0,2020-05-26 00:00:00,1985,7274.0,1801531.0,1800000.0,,,Katherine Hunt,https://www.zillow.com/profile/Katherine-Hunt-Agent/,,,0,2086709.0,2020-04-30,https://www.zillow.com/homedetails/954-Wilmington-Way-Emerald-Hills-CA-94062/15590178_zpid/
79,15572706,"932 Cambridge Rd, Redwood City, CA 94061",94061,37.456212,-122.255594,4.0,3.0,1940.0,2020-05-22 15:00:00,1958,7400.0,2076928.0,2075000.0,Houda Tanverakul,https://www.zillow.com/profile/HoudaTanverakul/,,,2020-03-11 12:39:00,2195000.0,2,2156495.0,2020-02-29,https://www.zillow.com/homedetails/932-Cambridge-Rd-Redwood-City-CA-94061/15572706_zpid/
80,15571865,"3517 Glenwood Ave, Redwood City, CA 94062",94062,37.468734,-122.253422,3.0,3.0,1952.0,2020-05-22 00:00:00,1955,7801.0,2422248.0,2420000.0,,,,,,,0,2326330.0,2020-04-30,https://www.zillow.com/homedetails/3517-Glenwood-Ave-Redwood-City-CA-94062/15571865_zpid/
81,15562613,"1533 Edmond Dr, San Carlos, CA 94070",94070,37.476425,-122.278999,4.0,3.0,2950.0,2020-05-22 00:00:00,1983,11153.0,2252090.0,2250000.0,Gilson Team,https://www.zillow.com/profile/Gilson-Team/,David Young,https://www.zillow.com/profile/David-Young/,2020-04-07 17:38:00,2248000.0,1,2730895.0,2020-03-31,https://www.zillow.com/homedetails/1533-Edmond-Dr-San-Carlos-CA-94070/15562613_zpid/
82,15589846,"620 Eastview Way, Woodside, CA 94062",94062,37.458636,-122.27626,4.0,4.0,4008.0,2020-05-21 00:00:00,1969,16456.0,3558275.0,2800000.0,,,Siobhan O'Sullivan,https://www.zillow.com/profile/SiobhanOSullivan/,2020-04-14 10:28:00,2850000.0,1,3703665.0,2020-03-31,https://www.zillow.com/homedetails/620-Eastview-Way-Woodside-CA-94062/15589846_zpid/
83,181458030,"18 Ethel Ct, Redwood City, CA 94061",94061,37.455923,-122.242346,3.0,2.0,2150.0,2020-05-15 00:00:00,1954,11016.0,2391549.0,2388888.0,Ed Gory,https://www.zillow.com/profile/egory/,,,2020-04-12 15:17:00,2199000.0,1,2185080.0,2020-03-31,https://www.zillow.com/homedetails/18-Ethel-Ct-Redwood-City-CA-94061/181458030_zpid/
84,15572736,"3657 Jefferson Ave, Redwood City, CA 94062",94062,37.464956,-122.253509,2.0,2.0,2150.0,2020-05-14 00:00:00,1980,3571.0,1551684.0,1550000.0,,,,,,,0,1663593.0,2020-04-30,https://www.zillow.com/homedetails/3657-Jefferson-Ave-Redwood-City-CA-94062/15572736_zpid/
85,15597620,"120 Hillside Dr, Woodside, CA 94062",94062,37.438445,-122.253716,3.0,3.0,2480.0,2020-05-13 15:00:00,1926,22002.0,2798093.0,2795000.0,Scott Dancer,https://www.zillow.com/profile/Scott-Dancer/,Raziel Ungar,https://www.zillow.com/profile/razielungar/,2020-03-03 15:25:00,2870000.0,1,2999241.0,2020-02-29,https://www.zillow.com/homedetails/120-Hillside-Dr-Woodside-CA-94062/15597620_zpid/
86,64470138,"3875 Jefferson Ave, Emerald Hills, CA 94062",94062,37.460483,-122.260654,4.0,2.0,2486.0,2020-05-11 15:00:00,1952,27055.0,3128581.0,3125000.0,,,Matthew Rogers,https://www.zillow.com/profile/user0573165/,2020-02-07 07:29:00,3450000.0,1,3153800.0,2020-01-31,https://www.zillow.com/homedetails/3875-Jefferson-Ave-Emerald-Hills-CA-94062/64470138_zpid/
87,15571990,"3662 Highland Ave, Redwood City, CA 94062",94062,37.466719,-122.255187,3.0,3.0,1850.0,2020-05-08 15:00:00,1968,7139.0,2002410.0,2000000.0,Diane Mollison,https://www.zillow.com/profile/Diane-Mollison/,John Prouty,https://www.zillow.com/profile/John-Prouty3/,,,0,1983600.0,2020-04-30,https://www.zillow.com/homedetails/3662-Highland-Ave-Redwood-City-CA-94062/15571990_zpid/
88,15571520,"3369 Oak Knoll Dr, Emerald Hills, CA 94062",94062,37.467978,-122.261214,3.0,1.0,1430.0,2020-05-08 00:00:00,1948,30901.0,1692214.0,1400000.0,,,Andrew Weinberger,https://www.zillow.com/profile/user476072/,2020-03-13 00:38:00,1600000.0,1,1441904.0,2020-02-29,https://www.zillow.com/homedetails/3369-Oak-Knoll-Dr-Emerald-Hills-CA-94062/15571520_zpid/
89,181437100,"3369 Oak Knoll Dr, Emerald Hills, CA 94062",94062,37.467978,-122.261214,,,,2020-05-08 00:00:00,-1,11543.0,,1400000.0,,,,,,,0,,,https://www.zillow.com/homedetails/3369-Oak-Knoll-Dr-Emerald-Hills-CA-94062/181437100_zpid/
90,181437102,"3369 Oak Knoll Dr, Emerald Hills, CA 94062",94062,37.467978,-122.261214,,,,2020-05-08 00:00:00,-1,9191.0,,1400000.0,,,,,,,0,,,https://www.zillow.com/homedetails/3369-Oak-Knoll-Dr-Emerald-Hills-CA-94062/181437102_zpid/
91,15590179,"942 Wilmington Way, Emerald Hills, CA 94062",94062,37.455246,-122.264957,2.0,3.0,2060.0,2020-05-05 15:00:00,1949,7350.0,1772238.0,1770000.0,Liza Vernazza,https://www.zillow.com/profile/lizavernazza/,John Heckenberg,https://www.zillow.com/profile/JohnHeckenberg/,2019-10-26 07:02:00,0.0,1,1217442.0,2019-09-30,https://www.zillow.com/homedetails/942-Wilmington-Way-Emerald-Hills-CA-94062/15590179_zpid/
92,15571245,"647 Park Rd, Emerald Hills, CA 94062",94062,37.466137,-122.265657,3.0,3.0,1770.0,2020-05-05 00:00:00,2001,3500.0,1649028.0,1725000.0,Brian Pugh,https://www.zillow.com/profile/brianjpugh/,Aaron Derbacher,https://www.zillow.com/profile/AaronDerbacher/,2020-03-13 01:55:00,1849000.0,1,1716897.0,2020-02-29,https://www.zillow.com/homedetails/647-Park-Rd-Emerald-Hills-CA-94062/15571245_zpid/
93,15575099,"744 Crompton Rd, Redwood City, CA 94061",94061,37.465736,-122.247445,3.0,2.0,1850.0,2020-05-01 15:00:00,1962,8999.0,1782390.0,1780000.0,Joyce Romeo,https://www.zillow.com/profile/joyceandtatum/,,,2020-04-02 13:59:00,1779000.0,1,1923043.0,2020-03-31,https://www.zillow.com/homedetails/744-Crompton-Rd-Redwood-City-CA-94061/15575099_zpid/
94,15575452,"2432 Mcgarvey Ave, Redwood City, CA 94061",94061,37.464955,-122.243375,3.0,3.0,1420.0,2020-05-01 00:00:00,1953,7148.0,1672551.0,5750.0,Robert Stuart,https://www.zillow.com/profile/Robert-Stuart/,Maggie Guo,https://www.zillow.com/profile/Maggie-Guo/,2019-11-10 00:15:00,1595000.0,1,1498410.0,2019-10-31,https://www.zillow.com/homedetails/2432-Mcgarvey-Ave-Redwood-City-CA-94061/15575452_zpid/
95,15575858,"1266 Connecticut Dr, Redwood City, CA 94061",94061,37.461188,-122.240654,3.0,1.0,980.0,2020-04-30 15:00:00,1950,6268.0,1362611.0,1230000.0,Laura Bertolacci,https://www.zillow.com/profile/Laura-Bertolacci/,Bryan Jacobs,https://www.zillow.com/profile/bryan-jacobs/,2020-03-13 09:39:00,1389000.0,1,1364876.0,2020-02-29,https://www.zillow.com/homedetails/1266-Connecticut-Dr-Redwood-City-CA-94061/15575858_zpid/
96,15575431,"1286 Foothill St, Redwood City, CA 94061",94061,37.457903,-122.245195,3.0,2.0,1380.0,2020-04-24 15:00:00,1952,6019.0,1852927.0,1850000.0,Caroline Dinsmore,https://www.zillow.com/profile/Caroline-Dinsmore/,Leila Sisneros,https://www.zillow.com/profile/Leila-M.-Sisneros/,2020-03-06 08:02:00,1698000.0,1,1716891.0,2020-02-29,https://www.zillow.com/homedetails/1286-Foothill-St-Redwood-City-CA-94061/15575431_zpid/
97,316270063,"3515 Farm Hill Blvd, Redwood City, CA 94061",94061,37.464708,-122.249223,,,,2020-04-24 00:00:00,-1,1785.0,,3550000.0,,,,,,,0,,,https://www.zillow.com/homedetails/3515-Farm-Hill-Blvd-Redwood-City-CA-94061/316270063_zpid/
98,15573827,"1603 Madison Ave, Redwood City, CA 94061",94061,37.471365,-122.240904,2.0,2.0,1370.0,2020-04-21 00:00:00,1946,5401.0,1605700.0,1603000.0,Matthew Swenson,https://www.zillow.com/profile/Matthew-Swenson-1/,Kristin Gray,https://www.zillow.com/profile/Kristin-Gray/,2020-03-12 11:08:00,1495000.0,1,1095115.0,2020-02-29,https://www.zillow.com/homedetails/1603-Madison-Ave-Redwood-City-CA-94061/15573827_zpid/
99,15564829,"524 Jeter St, Redwood City, CA 94062",94062,37.476738,-122.239015,3.0,1.5,1260.0,2020-04-15 15:00:00,1952,6534.0,1633024.0,1630000.0,Laura Bertolacci,https://www.zillow.com/profile/Laura-Bertolacci/,Cliff Whearley,https://www.zillow.com/profile/cliffwhearley/,,,0,1613024.0,2020-03-31,https://www.zillow.com/homedetails/524-Jeter-St-Redwood-City-CA-94062/15564829_zpid/
100,15574468,"3090 Oak Knoll Dr, Redwood City, CA 94062",94062,37.475002,-122.257097,2.0,1.0,1700.0,2020-04-14 08:00:00,1932,13499.0,1835523.0,1832000.0,Brian Ayer,https://www.zillow.com/profile/brianayer/,,,2020-03-30 20:34:00,1795000.0,1,1778209.0,2020-02-29,https://www.zillow.com/homedetails/3090-Oak-Knoll-Dr-Redwood-City-CA-94062/15574468_zpid/
101,15589705,"624 Lakemead Way, Emerald Hills, CA 94062",94062,37.462271,-122.268309,5.0,4.5,4080.0,2020-04-14 00:00:00,1998,18164.0,3878018.0,1546000.0,,,,,,,0,3739759.0,2020-03-31,https://www.zillow.com/homedetails/624-Lakemead-Way-Emerald-Hills-CA-94062/15589705_zpid/
102,15590626,"176 Harcross Rd, Woodside, CA 94062",94062,37.453269,-122.247151,7.0,8.0,7223.0,2020-04-13 00:00:00,1933,1394791.0,20540136.0,20500000.0,Scott Dancer,https://www.zillow.com/profile/Scott-Dancer/,Richard Williamson,https://www.zillow.com/profile/admin3872/,,,0,23039554.0,2019-12-31,https://www.zillow.com/homedetails/176-Harcross-Rd-Woodside-CA-94062/15590626_zpid/
103,15575450,"2224 Euclid Ave, Redwood City, CA 94061",94061,37.465152,-122.243158,2.0,3.0,1350.0,2020-04-08 15:00:00,1955,6429.0,1633470.0,1630000.0,Katie Figueroa,https://www.zillow.com/profile/Katie-Figueroa/,Jordan Mott,https://www.zillow.com/profile/JordanMott/,2020-02-25 20:19:00,1450000.0,1,1629536.0,2020-01-31,https://www.zillow.com/homedetails/2224-Euclid-Ave-Redwood-City-CA-94061/15575450_zpid/
104,15571301,"3627 Oak Knoll Dr, Emerald Hills, CA 94062",94062,37.465005,-122.263664,3.0,2.0,1600.0,2020-04-06 00:00:00,1928,7522.0,1302855.0,1300000.0,,,Jerry Haslam,https://www.zillow.com/profile/Jerry-Haslam/,2020-02-03 10:13:00,1299000.0,1,1700597.0,2020-01-31,https://www.zillow.com/homedetails/3627-Oak-Knoll-Dr-Emerald-Hills-CA-94062/15571301_zpid/
105,15575213,"1216 Alameda De Las Pulgas, Redwood City, CA 94061",94061,37.461146,-122.24326,3.0,1.0,980.0,2020-04-06 00:00:00,1950,6159.0,1370869.0,1275000.0,,,Brett Caviness,https://www.zillow.com/profile/BrettCaviness/,2020-02-23 11:15:00,1388000.0,1,1352916.0,2020-01-31,https://www.zillow.com/homedetails/1216-Alameda-De-Las-Pulgas-Redwood-City-CA-94061/15575213_zpid/
106,15572613,"3824 Vineyard Dr, Redwood City, CA 94061",94061,37.455133,-122.255279,3.0,2.5,1390.0,2020-04-03 15:00:00,1959,8145.0,1754024.0,1750000.0,Bryan Jacobs,https://www.zillow.com/profile/bryan-jacobs/,Alison Williams,https://www.zillow.com/profile/awilliamsrwc/,,,0,1761794.0,2020-03-31,https://www.zillow.com/homedetails/3824-Vineyard-Dr-Redwood-City-CA-94061/15572613_zpid/
107,15572586,"3745 Farm Hill Blvd, Redwood City, CA 94061",94061,37.456039,-122.249982,5.0,4.0,3851.0,2020-04-03 00:00:00,1958,9378.0,2495725.0,2490000.0,John Shroyer,https://www.zillow.com/profile/JohnShroyer/,,,2020-01-31 19:49:00,2565000.0,1,2808944.0,2020-01-31,https://www.zillow.com/homedetails/3745-Farm-Hill-Blvd-Redwood-City-CA-94061/15572586_zpid/
108,15572504,"3727 Country Club Dr, Redwood City, CA 94061",94061,37.457249,-122.250034,3.0,2.0,1805.0,2020-04-01 08:00:00,1956,7701.0,1889559.0,1885000.0,Bob Bredel,https://www.zillow.com/profile/Bob-Bredel/,"Cory Cooper, Realtor",https://www.zillow.com/profile/Cory-Cooper/,2020-02-28 06:52:00,1648000.0,1,1657368.0,2020-01-31,https://www.zillow.com/homedetails/3727-Country-Club-Dr-Redwood-City-CA-94061/15572504_zpid/
109,15570921,"313 Lakeview Way, Emerald Hills, CA 94062",94062,37.472531,-122.272085,3.0,2.0,1789.0,2020-03-31 15:00:00,1927,12501.0,1902683.0,1450000.0,,,Disen Cai,https://www.zillow.com/profile/Disen-Cai/,2020-03-05 23:36:00,1349000.0,1,1596513.0,2020-02-29,https://www.zillow.com/homedetails/313-Lakeview-Way-Emerald-Hills-CA-94062/15570921_zpid/
110,15573816,"751 Ruby St, Redwood City, CA 94061",94061,37.4699,-122.241437,3.0,1.0,1310.0,2020-03-31 00:00:00,1951,5357.0,1515095.0,1200000.0,,,,,,,0,1524811.0,2020-02-29,https://www.zillow.com/homedetails/751-Ruby-St-Redwood-City-CA-94061/15573816_zpid/
111,15590214,"1040 Wilmington Way, Emerald Hills, CA 94062",94062,37.455928,-122.263667,3.0,2.0,1461.0,2020-03-27 00:00:00,1987,9051.0,1904982.0,1900000.0,,,,,2020-02-20 08:18:00,1695000.0,1,1802643.0,2020-01-31,https://www.zillow.com/homedetails/1040-Wilmington-Way-Emerald-Hills-CA-94062/15590214_zpid/
112,15571477,"579 Hillside Rd, Redwood City, CA 94062",94062,37.47084,-122.263554,3.0,3.0,2890.0,2020-03-27 00:00:00,1989,21780.0,2456424.0,2450000.0,,,,,2020-02-06 20:00:00,2399000.0,1,2363474.0,2020-01-31,https://www.zillow.com/homedetails/579-Hillside-Rd-Redwood-City-CA-94062/15571477_zpid/
113,15573546,"421 Ruby St, Redwood City, CA 94062",94062,37.473251,-122.245546,4.0,3.0,2070.0,2020-03-25 00:00:00,1959,6098.0,2200979.0,2195000.0,,,,,2020-02-03 09:37:00,2195000.0,1,1938439.0,2020-01-31,https://www.zillow.com/homedetails/421-Ruby-St-Redwood-City-CA-94062/15573546_zpid/
114,15573699,"400 Myrtle St, Redwood City, CA 94062",94062,37.476647,-122.242553,3.0,2.0,1610.0,2020-03-24 00:00:00,1927,8058.0,1717046.0,4995.0,,,,,,,0,1684238.0,2020-02-29,https://www.zillow.com/homedetails/400-Myrtle-St-Redwood-City-CA-94062/15573699_zpid/
115,122062424,"25 Rathgar Ct, Redwood City, CA 94062",94062,37.476722,-122.26473,5.0,5.0,4517.0,2020-03-24 00:00:00,2013,20037.0,3910823.0,3900000.0,,,,,,,0,3912424.0,2020-02-29,https://www.zillow.com/homedetails/25-Rathgar-Ct-Redwood-City-CA-94062/122062424_zpid/
116,15571923,"3530 Altamont Way, Redwood City, CA 94062",94062,37.466669,-122.250227,3.0,2.0,1510.0,2020-03-23 15:00:00,1960,6956.0,1714832.0,1710000.0,Holly Noto,https://www.zillow.com/profile/Holly-Noto/,,,2020-02-21 08:09:00,1498000.0,1,1493943.0,2020-01-31,https://www.zillow.com/homedetails/3530-Altamont-Way-Redwood-City-CA-94062/15571923_zpid/
117,15562608,"1481 Crestview Dr, San Carlos, CA 94070",94070,37.476377,-122.280107,4.0,3.0,2950.0,2020-03-23 15:00:00,1981,10049.0,2807912.0,2800000.0,,,Joyce Romeo,https://www.zillow.com/profile/joyceandtatum/,2020-02-21 11:01:00,2700000.0,1,2548759.0,2020-01-31,https://www.zillow.com/homedetails/1481-Crestview-Dr-San-Carlos-CA-94070/15562608_zpid/
118,15571110,"512 Lakeview Way, Emerald Hills, CA 94062",94062,37.469928,-122.266621,4.0,4.0,3026.0,2020-03-23 15:00:00,2009,11438.0,3259184.0,3250000.0,,,Anjali Jain Ellis,https://www.zillow.com/profile/Anjali-Jain-Ellis/,2020-01-09 22:24:00,3295000.0,1,3106205.0,2019-12-31,https://www.zillow.com/homedetails/512-Lakeview-Way-Emerald-Hills-CA-94062/15571110_zpid/
119,15572259,"3676 Mcnulty Way, Redwood City, CA 94061",94061,37.461327,-122.254684,4.0,3.0,2360.0,2020-03-23 00:00:00,1958,15002.0,2657488.0,2650000.0,,,Katherine Hunt,https://www.zillow.com/profile/Katherine-Hunt-Agent/,2020-02-03 08:25:00,2749000.0,1,2448288.0,2020-01-31,https://www.zillow.com/homedetails/3676-Mcnulty-Way-Redwood-City-CA-94061/15572259_zpid/
120,15571773,"3943 Brookline Way, Emerald Hills, CA 94062",94062,37.46077,-122.263674,3.0,3.0,1874.0,2020-03-20 00:00:00,1968,17498.0,2106255.0,2100000.0,,,,,2020-02-28 11:59:00,1998000.0,1,2261998.0,2020-01-31,https://www.zillow.com/homedetails/3943-Brookline-Way-Emerald-Hills-CA-94062/15571773_zpid/
121,15574762,"570 Lancaster Way, Redwood City, CA 94062",94062,37.469725,-122.248714,3.0,2.0,1490.0,2020-03-20 00:00:00,1947,6050.0,1720108.0,1715000.0,,,,,2020-02-14 11:01:00,1598000.0,1,1563286.0,2020-01-31,https://www.zillow.com/homedetails/570-Lancaster-Way-Redwood-City-CA-94062/15574762_zpid/
122,15573840,"2529 Jefferson Ave, Redwood City, CA 94062",94062,37.471861,-122.241031,3.0,3.0,1200.0,2020-03-19 08:00:00,1924,4081.0,1454392.0,1450000.0,,,Barry Gevertz,https://www.zillow.com/profile/Barry-Gevertz/,2020-02-14 10:46:00,1298000.0,1,1586293.0,2020-01-31,https://www.zillow.com/homedetails/2529-Jefferson-Ave-Redwood-City-CA-94062/15573840_zpid/
123,15575746,"880 Alameda De Las Pulgas, Redwood City, CA 94061",94061,37.465272,-122.24627,3.0,2.0,1250.0,2020-03-17 15:00:00,1953,7056.0,1713348.0,1708000.0,Ginna Arnold-Lazar,https://www.zillow.com/profile/ginnalazar/,,,2020-02-14 10:03:00,1598000.0,1,1587577.0,2020-01-31,https://www.zillow.com/homedetails/880-Alameda-De-Las-Pulgas-Redwood-City-CA-94061/15575746_zpid/
124,15562629,"158 Fleetwood Dr, San Carlos, CA 94070",94070,37.475033,-122.278582,4.0,3.0,2650.0,2020-03-13 15:00:00,1982,10000.0,2430078.0,2422000.0,,,Gary Beswick,https://www.zillow.com/profile/Gary-Beswick/,2020-02-07 11:08:00,2398000.0,1,2443024.0,2020-01-31,https://www.zillow.com/homedetails/158-Fleetwood-Dr-San-Carlos-CA-94070/15562629_zpid/
125,15573735,"2015 Madison Ave, Redwood City, CA 94061",94061,37.468973,-122.243919,3.0,2.0,1700.0,2020-03-13 15:00:00,1961,6000.0,1806003.0,1800000.0,Karen Kovacs,https://www.zillow.com/profile/karenzrealtor/,Laura Peters,https://www.zillow.com/profile/laura3813/,2019-10-25 11:14:00,1685000.0,3,1640366.0,2019-09-30,https://www.zillow.com/homedetails/2015-Madison-Ave-Redwood-City-CA-94061/15573735_zpid/
126,15571009,"68 W Summit Dr, Emerald Hills, CA 94062",94062,37.467815,-122.271569,3.0,2.0,1810.0,2020-03-13 00:00:00,1947,7257.0,1916370.0,1910000.0,,,,,2020-02-07 13:43:00,1810000.0,1,1880237.0,2020-01-31,https://www.zillow.com/homedetails/68-W-Summit-Dr-Emerald-Hills-CA-94062/15571009_zpid/
127,15572737,"3655 Jefferson Ave, Redwood City, CA 94062",94062,37.464871,-122.253565,2.0,3.0,2410.0,2020-03-11 00:00:00,1980,2774.0,1655671.0,1650000.0,,,,,2019-07-08 08:24:00,1745000.0,2,1904168.0,2019-06-30,https://www.zillow.com/homedetails/3655-Jefferson-Ave-Redwood-City-CA-94062/15572737_zpid/
128,15590927,"2849 Washington Ave, Redwood City, CA 94061",94061,37.45722,-122.239879,3.0,2.0,1420.0,2020-03-11 00:00:00,1952,6669.0,1654617.0,1900000.0,Ellen Larios,https://www.zillow.com/profile/Ellen-Larios/,Hugh Cornish,https://www.zillow.com/profile/hcornish9/,2020-02-19 21:08:00,1749000.0,1,1667590.0,2020-01-31,https://www.zillow.com/homedetails/2849-Washington-Ave-Redwood-City-CA-94061/15590927_zpid/
129,15571866,"3515 Glenwood Ave, Redwood City, CA 94062",94062,37.468797,-122.253245,5.0,4.0,2858.0,2020-03-07 16:00:00,1954,8712.0,3011076.0,3000000.0,Heather Yian Lin,https://www.zillow.com/profile/HeatherLin/,,,2020-02-19 11:02:00,2798000.0,1,1616153.0,2020-01-31,https://www.zillow.com/homedetails/3515-Glenwood-Ave-Redwood-City-CA-94062/15571866_zpid/
130,15573496,"523 Topaz St, Redwood City, CA 94062",94062,37.471401,-122.246012,3.0,4.0,2440.0,2020-03-06 16:00:00,1953,7884.0,2253019.0,2000000.0,Vicky Costantini,https://www.zillow.com/profile/vcostantini/,,,,,0,2047334.0,2020-02-29,https://www.zillow.com/homedetails/523-Topaz-St-Redwood-City-CA-94062/15573496_zpid/
131,122246206,"428 Avenue Del Ora, Redwood City, CA 94062",94062,37.475749,-122.243699,6.0,5.0,3479.0,2020-03-06 16:00:00,2013,6878.0,3051224.0,3040000.0,,,Jason Shi,https://www.zillow.com/profile/jasonshi-yijie/,2020-01-23 10:00:00,3100000.0,1,3419355.0,2019-12-31,https://www.zillow.com/homedetails/428-Avenue-Del-Ora-Redwood-City-CA-94062/122246206_zpid/
132,181439136,"522 Sapphire St, Redwood City, CA 94062",94062,37.471466,-122.24615,,,,2020-03-06 00:00:00,-1,2613.0,,2000000.0,,,,,,,0,,,https://www.zillow.com/homedetails/522-Sapphire-St-Redwood-City-CA-94062/181439136_zpid/
133,15572647,"3801 Vineyard Dr, Redwood City, CA 94061",94061,37.455207,-122.254281,3.0,3.0,1740.0,2020-03-06 00:00:00,1958,6934.0,2358676.0,2350000.0,Grant Keeler,https://www.zillow.com/profile/grant316/,Brian Ayer,https://www.zillow.com/profile/brianayer/,2020-02-05 18:54:00,2195000.0,1,1734156.0,2020-01-31,https://www.zillow.com/homedetails/3801-Vineyard-Dr-Redwood-City-CA-94061/15572647_zpid/
134,15590360,"4253 Jefferson Ave, Woodside, CA 94062",94062,37.449829,-122.27332,3.0,2.5,2100.0,2020-03-05 00:00:00,1947,39204.0,3939691.0,3925000.0,,,Jean Isaacson,https://www.zillow.com/profile/JeanIsaacson/,2020-02-12 13:26:00,3495000.0,1,2920719.0,2020-01-31,https://www.zillow.com/homedetails/4253-Jefferson-Ave-Woodside-CA-94062/15590360_zpid/
135,15571214,"356 Summit Dr, Emerald Hills, CA 94062",94062,37.467836,-122.265849,4.0,3.0,3490.0,2020-03-02 00:00:00,1989,9125.0,2288883.0,2280000.0,John Shroyer,https://www.zillow.com/profile/JohnShroyer/,,,2019-07-08 10:44:00,2488000.0,2,2360150.0,2019-06-30,https://www.zillow.com/homedetails/356-Summit-Dr-Emerald-Hills-CA-94062/15571214_zpid/
136,79841842,"20 Danford Ct, Redwood City, CA 94062",94062,37.469879,-122.260498,4.0,5.0,4850.0,2020-03-02 00:00:00,2007,20394.0,3789708.0,3775000.0,John Shroyer,https://www.zillow.com/profile/JohnShroyer/,,,2020-01-10 12:29:00,3898000.0,1,3820000.0,2019-12-31,https://www.zillow.com/homedetails/20-Danford-Ct-Redwood-City-CA-94062/79841842_zpid/
137,15559275,"132 Duggan Rd, Redwood City, CA 94062",94062,37.475897,-122.268755,5.0,5.0,4000.0,2020-03-02 00:00:00,1975,60000.0,3453402.0,3440000.0,Hoi Wing Ng,https://www.zillow.com/profile/Hoi-Wing-Ng/,,,2019-09-25 16:42:00,3788000.0,2,3448613.0,2019-08-31,https://www.zillow.com/homedetails/132-Duggan-Rd-Redwood-City-CA-94062/15559275_zpid/
138,15572143,"3615 Farm Hill Blvd, Redwood City, CA 94061",94061,37.462023,-122.249569,5.0,4.0,2748.0,2020-02-28 16:00:00,1959,12061.0,2468087.0,2458000.0,Milana Ostroy,https://www.zillow.com/profile/milana-ostroy/,Robert Doyle,https://www.zillow.com/profile/Robert-Edwin-Doyle/,2019-09-12 00:36:00,2688000.0,2,2378877.0,2019-08-31,https://www.zillow.com/homedetails/3615-Farm-Hill-Blvd-Redwood-City-CA-94061/15572143_zpid/
139,15570865,"1835 Cordilleras Rd, Emerald Hills, CA 94062",94062,37.472905,-122.265603,3.0,2.0,2050.0,2020-02-28 00:00:00,1948,22385.0,1807387.0,1800000.0,,,,,2019-10-11 11:02:00,1829000.0,1,2029920.0,2019-09-30,https://www.zillow.com/homedetails/1835-Cordilleras-Rd-Emerald-Hills-CA-94062/15570865_zpid/
140,15575062,"3402 Dover Rd, Redwood City, CA 94061",94061,37.468003,-122.248583,3.0,2.0,1110.0,2020-02-25 16:00:00,1953,5401.0,1355857.0,1350000.0,,,"Cory Cooper, Realtor",https://www.zillow.com/profile/Cory-Cooper/,2020-01-29 00:22:00,999888.0,1,1471268.0,2019-12-31,https://www.zillow.com/homedetails/3402-Dover-Rd-Redwood-City-CA-94061/15575062_zpid/
141,15574861,"3519 Highland Ave, Redwood City, CA 94062",94062,37.468206,-122.251256,4.0,4.0,1890.0,2020-02-25 08:00:00,1962,7749.0,2260112.0,1600000.0,Joseph F Rodden,https://www.zillow.com/profile/Joseph-F-Rodden/,Allen Nazari,https://www.zillow.com/profile/Allen-Nazari/,2020-01-22 12:39:00,1475000.0,1,1524479.0,2019-12-31,https://www.zillow.com/homedetails/3519-Highland-Ave-Redwood-City-CA-94062/15574861_zpid/
142,15572733,"911 Emerald Hill Rd, Redwood City, CA 94061",94061,37.457566,-122.255105,3.0,2.0,1300.0,2020-02-25 00:00:00,1957,7770.0,1787723.0,1780000.0,,,Lauren Keeler,https://www.zillow.com/profile/laurenakeeler/,2020-01-23 16:39:00,1695000.0,1,1573583.0,2019-12-31,https://www.zillow.com/homedetails/911-Emerald-Hill-Rd-Redwood-City-CA-94061/15572733_zpid/
143,15590468,"3883 Chatham Ct, Redwood City, CA 94061",94061,37.452993,-122.253828,4.0,3.0,2600.0,2020-02-24 16:00:00,1967,18499.0,2511044.0,2500000.0,,,Paul Hwang,https://www.zillow.com/profile/Paul-Hwang/,2020-01-05 19:54:00,2599000.0,1,2015146.0,2019-12-31,https://www.zillow.com/homedetails/3883-Chatham-Ct-Redwood-City-CA-94061/15590468_zpid/
144,15572358,"954 Glennan Dr, Redwood City, CA 94061",94061,37.458499,-122.251719,4.0,3.0,1890.0,2020-02-24 16:00:00,1956,7666.0,1988746.0,1980000.0,Laura Bertolacci,https://www.zillow.com/profile/Laura-Bertolacci/,Kei Group,https://www.zillow.com/profile/keigroup/,2020-01-24 08:00:00,1800000.0,1,1967358.0,2019-12-31,https://www.zillow.com/homedetails/954-Glennan-Dr-Redwood-City-CA-94061/15572358_zpid/
145,15572168,"3697 Brandy Rock Way, Redwood City, CA 94061",94061,37.458217,-122.24699,4.0,3.0,2516.0,2020-02-21 00:00:00,1956,12000.0,2310701.0,2300000.0,Pam Tyson,https://www.zillow.com/profile/tysonsales/,Andrea Hafner Lynn,https://www.zillow.com/profile/alh26/,2019-10-18 12:45:00,2400000.0,1,1694424.0,2019-09-30,https://www.zillow.com/homedetails/3697-Brandy-Rock-Way-Redwood-City-CA-94061/15572168_zpid/
146,15571605,"3835 Hamilton Way, Emerald Hills, CA 94062",94062,37.462072,-122.260727,4.0,3.0,2220.0,2020-02-20 16:00:00,1947,7670.0,1667854.0,1660000.0,Laura Bertolacci,https://www.zillow.com/profile/Laura-Bertolacci/,Francesca Lampert,https://www.zillow.com/profile/francesca-lampert/,2019-10-04 08:24:00,1899500.0,1,1945736.0,2019-09-30,https://www.zillow.com/homedetails/3835-Hamilton-Way-Emerald-Hills-CA-94062/15571605_zpid/
147,15590407,"1093 Eden Bower Ln, Redwood City, CA 94061",94061,37.451621,-122.255808,3.0,2.0,2310.0,2020-02-20 16:00:00,1963,31000.0,2963957.0,2950000.0,Liz Blank,https://www.zillow.com/profile/liz7316/,,,2020-01-17 10:28:00,2739000.0,1,2480917.0,2019-12-31,https://www.zillow.com/homedetails/1093-Eden-Bower-Ln-Redwood-City-CA-94061/15590407_zpid/
148,15590098,"786 Lakemead Way, Emerald Hills, CA 94062",94062,37.459667,-122.266155,4.0,4.0,2503.0,2020-02-14 16:00:00,1949,10031.0,2688916.0,2675000.0,Peter Vece,https://www.zillow.com/profile/Peter-Vece/,,,2020-01-03 11:42:00,2695000.0,1,1509038.0,2019-12-31,https://www.zillow.com/homedetails/786-Lakemead-Way-Emerald-Hills-CA-94062/15590098_zpid/
149,15573815,"1726 Vera Ave, Redwood City, CA 94061",94061,37.469989,-122.241322,3.0,2.0,1440.0,2020-02-14 16:00:00,1950,5967.0,2482849.0,2470000.0,,,Sophia Xu,https://www.zillow.com/profile/Sophia-Xu/,,,0,1562327.0,2020-01-31,https://www.zillow.com/homedetails/1726-Vera-Ave-Redwood-City-CA-94061/15573815_zpid/
150,15575199,"1102 Crompton Rd, Redwood City, CA 94061",94061,37.461617,-122.244919,5.0,2.0,1970.0,2020-02-14 00:00:00,1953,6303.0,1208556.0,1350000.0,,,,,,,0,1198753.0,2020-01-31,https://www.zillow.com/homedetails/1102-Crompton-Rd-Redwood-City-CA-94061/15575199_zpid/
151,15597601,"103 Hillside Dr, Woodside, CA 94062",94062,37.437828,-122.25395,3.0,3.0,1700.0,2020-02-14 00:00:00,1928,9500.0,2311965.0,2300000.0,,,Deanna Reudy,https://www.zillow.com/profile/Deanna-Reudy/,2019-06-10 10:35:00,2500000.0,1,2118960.0,2019-05-31,https://www.zillow.com/homedetails/103-Hillside-Dr-Woodside-CA-94062/15597601_zpid/
152,15575002,"605 Oak Ridge Dr, Redwood City, CA 94061",94061,37.468828,-122.248377,4.0,1.0,1270.0,2020-02-13 16:00:00,1947,5488.0,1608448.0,1600000.0,Vicky Costantini,https://www.zillow.com/profile/vcostantini/,"Cory Cooper, Realtor",https://www.zillow.com/profile/Cory-Cooper/,,,0,1574851.0,2020-01-31,https://www.zillow.com/homedetails/605-Oak-Ridge-Dr-Redwood-City-CA-94061/15575002_zpid/
153,15573615,"515 Quartz St, Redwood City, CA 94062",94062,37.473022,-122.243721,3.0,2.0,1692.0,2020-02-12 00:00:00,1935,6098.0,1588467.0,1580000.0,,,,,,,0,1857885.0,2020-01-31,https://www.zillow.com/homedetails/515-Quartz-St-Redwood-City-CA-94062/15573615_zpid/
154,15590813,"250 Woodside Dr, Woodside, CA 94062",94062,37.44997,-122.239836,4.0,3.0,2990.0,2020-02-12 00:00:00,1955,47759.0,3135963.0,2478000.0,,,,,,,0,3091882.0,2020-01-31,https://www.zillow.com/homedetails/250-Woodside-Dr-Woodside-CA-94062/15590813_zpid/
155,15591084,"1418 Alameda De Las Pulgas, Redwood City, CA 94061",94061,37.458025,-122.240971,3.0,3.0,2500.0,2020-02-11 00:00:00,1952,5850.0,1860059.0,1850000.0,Lissette Lawton,https://www.zillow.com/profile/Lissette-Lawton/,,,2019-12-01 17:35:00,1995000.0,1,2037285.0,2019-11-30,https://www.zillow.com/homedetails/1418-Alameda-De-Las-Pulgas-Redwood-City-CA-94061/15591084_zpid/
156,15573088,"14 Inner Cir, Redwood City, CA 94062",94062,37.476733,-122.245949,3.0,2.0,1720.0,2020-02-10 16:00:00,1948,7000.0,1809929.0,1800000.0,,,Amadee Vongthongsri,https://www.zillow.com/profile/Amadee/,2019-06-06 12:36:00,1950000.0,2,1652098.0,2019-05-31,https://www.zillow.com/homedetails/14-Inner-Cir-Redwood-City-CA-94062/15573088_zpid/
157,15575854,"1238 Connecticut Dr, Redwood City, CA 94061",94061,37.461657,-122.241172,3.0,2.0,1980.0,2020-02-05 16:00:00,1950,6268.0,1961676.0,1950000.0,John Heckenberg,https://www.zillow.com/profile/JohnHeckenberg/,,,2019-11-15 09:44:00,1899000.0,1,1849162.0,2019-10-31,https://www.zillow.com/homedetails/1238-Connecticut-Dr-Redwood-City-CA-94061/15575854_zpid/
158,15574896,"829 Canyon Rd, Redwood City, CA 94062",94062,37.468829,-122.250837,3.0,2.0,1460.0,2020-02-04 00:00:00,1949,9583.0,1702226.0,738500.0,,,,,,,0,1514778.0,2020-01-31,https://www.zillow.com/homedetails/829-Canyon-Rd-Redwood-City-CA-94062/15574896_zpid/
159,15589727,"684 Hillcrest Way, Emerald Hills, CA 94062",94062,37.462942,-122.269105,4.0,2.5,3400.0,2020-01-31 00:00:00,1989,7426.0,2415172.0,2400000.0,John Fischler,https://www.zillow.com/profile/ffpre/,,,2019-12-12 10:41:00,2499950.0,1,2385786.0,2019-11-30,https://www.zillow.com/homedetails/684-Hillcrest-Way-Emerald-Hills-CA-94062/15589727_zpid/
160,15589727,"684 Hillcrest Way, Emerald Hills, CA 94062",94062,37.462942,-122.269105,4.0,2.5,3400.0,2020-01-31 00:00:00,1989,7426.0,2415172.0,2400000.0,John Fischler,https://www.zillow.com/profile/ffpre/,,,2019-12-12 10:41:00,2499950.0,1,2385786.0,2019-11-30,https://www.zillow.com/homedetails/684-Hillcrest-Way-Emerald-Hills-CA-94062/15589727_zpid/
161,15570746,"175 Springdale Way, Emerald Hills, CA 94062",94062,37.472246,-122.274649,1.0,1.0,1012.0,2020-01-29 00:00:00,1939,8899.0,1185568.0,1220000.0,,,,,2019-05-17 14:31:00,949999.0,2,1375150.0,2019-04-30,https://www.zillow.com/homedetails/175-Springdale-Way-Emerald-Hills-CA-94062/15570746_zpid/
162,15575165,"1032 Chesterton Ave, Redwood City, CA 94061",94061,37.462589,-122.246845,3.0,2.0,1250.0,2020-01-27 00:00:00,1953,6098.0,1540273.0,1530000.0,,,,,,,0,1538258.0,2019-12-31,https://www.zillow.com/homedetails/1032-Chesterton-Ave-Redwood-City-CA-94061/15575165_zpid/
163,15571653,"842 Shepard Way, Redwood City, CA 94062",94062,37.462758,-122.25878,4.0,3.0,3370.0,2020-01-24 00:00:00,1971,7501.0,1818163.0,1800000.0,Vicky Costantini,https://www.zillow.com/profile/vcostantini/,Eric Lin,https://www.zillow.com/profile/EricPLin/,2019-12-11 15:26:00,1800000.0,1,,,https://www.zillow.com/homedetails/842-Shepard-Way-Redwood-City-CA-94062/15571653_zpid/
164,68009030,"221 Hillsdale Way, Emerald Hills, CA 94062",94062,37.470828,-122.27222,4.0,3.0,1980.0,2020-01-21 16:00:00,1993,11839.0,2094186.0,2079000.0,Carrie and Grant Du Bois,https://www.zillow.com/profile/Carrie-and-Grant-Du-Bois/,Evan Beal,https://www.zillow.com/profile/evanbeal/,2019-10-18 08:43:00,2079000.0,1,1944337.0,2019-09-30,https://www.zillow.com/homedetails/221-Hillsdale-Way-Emerald-Hills-CA-94062/68009030_zpid/
165,15590156,"919 Wilmington Way, Emerald Hills, CA 94062",94062,37.456319,-122.266198,4.0,3.5,2970.0,2020-01-10 00:00:00,1996,11761.0,2575419.0,2554000.0,,,,,,,0,2720487.0,2019-12-31,https://www.zillow.com/homedetails/919-Wilmington-Way-Emerald-Hills-CA-94062/15590156_zpid/
166,15574729,"2212 Harding Ave, Redwood City, CA 94062",94062,37.472205,-122.250768,3.0,3.0,2440.0,2020-01-08 08:00:00,1974,8219.0,1739807.0,1725000.0,,,Jim Tierney,https://www.zillow.com/profile/jmtierney/,2019-10-25 11:04:00,1788000.0,1,1952214.0,2019-09-30,https://www.zillow.com/homedetails/2212-Harding-Ave-Redwood-City-CA-94062/15574729_zpid/
167,15574903,"637 Upton St, Redwood City, CA 94061",94061,37.46974,-122.245272,3.0,1.0,1050.0,2020-01-08 00:00:00,1952,4621.0,1290987.0,1280000.0,Len Weaverling,https://www.zillow.com/profile/Lensan/,Marylene Notarianni,https://www.zillow.com/profile/Marylene-Notarianni/,2019-12-20 10:52:00,998000.0,1,1317090.0,2019-11-30,https://www.zillow.com/homedetails/637-Upton-St-Redwood-City-CA-94061/15574903_zpid/
168,15597534,"120 Alta Mesa Rd, Woodside, CA 94062",94062,37.440721,-122.25555,3.0,2.0,2020.0,2020-01-07 00:00:00,1939,15398.0,2206997.0,2188000.0,Allison Akana,https://www.zillow.com/profile/allison204/,Royce Cablayan,https://www.zillow.com/profile/rcablayan/,2019-10-21 00:41:00,2399000.0,1,2178692.0,2019-09-30,https://www.zillow.com/homedetails/120-Alta-Mesa-Rd-Woodside-CA-94062/15597534_zpid/
169,15573633,"541 Quartz St, Redwood City, CA 94062",94062,37.472689,-122.243291,2.0,1.0,710.0,2020-01-02 16:00:00,1927,7906.0,1422936.0,3900.0,Samira Chalhoub,https://www.zillow.com/profile/Samira-Chalhoub/,Samira Chalhoub,https://www.zillow.com/profile/Samira-Chalhoub/,2019-11-19 13:25:00,1230800.0,1,1202916.0,2019-10-31,https://www.zillow.com/homedetails/541-Quartz-St-Redwood-City-CA-94062/15573633_zpid/
170,15575481,"841 Alameda De Las Pulgas, Redwood City, CA 94061",94061,37.465563,-122.24533,3.0,1.0,1120.0,2020-01-02 00:00:00,1953,6229.0,1337156.0,1325000.0,,,,,,,0,1348458.0,2019-12-31,https://www.zillow.com/homedetails/841-Alameda-De-Las-Pulgas-Redwood-City-CA-94061/15575481_zpid/
171,15571481,"3255 Oak Knoll Dr, Redwood City, CA 94062",94062,37.469831,-122.25848,4.0,2.5,2840.0,2019-12-27 00:00:00,1925,16099.0,1333011.0,1320000.0,Liza Vernazza,https://www.zillow.com/profile/lizavernazza/,Slava Nezhichkin,https://www.zillow.com/profile/Slava-Nezhichkin/,2019-11-01 12:59:00,1499000.0,1,2311557.0,2019-10-31,https://www.zillow.com/homedetails/3255-Oak-Knoll-Dr-Redwood-City-CA-94062/15571481_zpid/
172,15572106,"888 Chesterton Ave, Redwood City, CA 94061",94061,37.463809,-122.248787,3.0,3.0,2090.0,2019-12-23 00:00:00,1961,6159.0,2017147.0,2201000.0,Jacklyn O'Connor Friedland,https://www.zillow.com/profile/jacklyn41/,,,2019-09-18 11:08:00,2298000.0,1,1706656.0,2019-08-31,https://www.zillow.com/homedetails/888-Chesterton-Ave-Redwood-City-CA-94061/15572106_zpid/
173,15597471,"240 Glenwood Ave, Woodside, CA 94062",94062,37.437487,-122.256854,3.0,2.0,1346.0,2019-12-20 00:00:00,1927,8276.0,2071884.0,2100000.0,,,,,2019-08-09 22:34:00,2400000.0,1,1928295.0,2019-07-31,https://www.zillow.com/homedetails/240-Glenwood-Ave-Woodside-CA-94062/15597471_zpid/
174,15574902,"629 Upton St, Redwood City, CA 94061",94061,37.469824,-122.245377,3.0,2.0,1270.0,2019-12-19 16:00:00,1953,4621.0,1527336.0,1290000.0,Cynthia Smith,https://www.zillow.com/profile/cynscasa/,Colleen McFerrin,https://www.zillow.com/profile/fourbridgesre/,2019-07-25 11:35:00,1468000.0,1,1534393.0,2019-06-30,https://www.zillow.com/homedetails/629-Upton-St-Redwood-City-CA-94061/15574902_zpid/
175,15571691,"816 Mohican Way, Redwood City, CA 94062",94062,37.461072,-122.258747,5.0,3.0,3610.0,2019-12-19 00:00:00,1959,9165.0,1971045.0,1950000.0,Francis La Poll,https://www.zillow.com/profile/Francis-La-Poll/,,,2019-09-03 22:43:00,2658000.0,1,2259669.0,2019-08-31,https://www.zillow.com/homedetails/816-Mohican-Way-Redwood-City-CA-94062/15571691_zpid/
176,181436685,"379 Greendale Way, Emerald Hills, CA 94062",94062,37.471779,-122.26793,,,,2019-12-17 00:00:00,-1,6577.0,,3550000.0,,,,,,,0,,,https://www.zillow.com/homedetails/379-Greendale-Way-Emerald-Hills-CA-94062/181436685_zpid/
177,306061485,"379 Greendale Way, Emerald Hills, CA 94062",94062,37.471779,-122.26793,,,,2019-12-17 00:00:00,-1,5662.0,,3550000.0,,,,,,,0,,,https://www.zillow.com/homedetails/379-Greendale-Way-Emerald-Hills-CA-94062/306061485_zpid/
178,181436684,"379 Greendale Way, Emerald Hills, CA 94062",94062,37.471779,-122.26793,3.0,5.0,6183.0,2019-12-17 00:00:00,1980,7492.0,3355736.0,3550000.0,,,,,,,0,2923023.0,2019-11-30,https://www.zillow.com/homedetails/379-Greendale-Way-Emerald-Hills-CA-94062/181436684_zpid/
179,68549634,"379 Greendale Way, Emerald Hills, CA 94062",94062,37.471779,-122.26793,5.0,4.5,5500.0,2019-12-17 00:00:00,2006,87120.0,6756485.0,3550000.0,Greg Garcia,https://www.zillow.com/profile/user529363/,Gina Henson,https://www.zillow.com/profile/user535314/,2019-07-19 18:36:00,4598000.0,1,4703202.0,2019-06-30,https://www.zillow.com/homedetails/379-Greendale-Way-Emerald-Hills-CA-94062/68549634_zpid/
180,15573632,"545 Quartz St, Redwood City, CA 94062",94062,37.47259,-122.243139,3.0,2.0,1750.0,2019-12-13 16:00:00,1994,7975.0,1771211.0,1560000.0,Deanna Pond,https://www.zillow.com/profile/Deanna-Pond/,Robert Doyle,https://www.zillow.com/profile/Robert-Edwin-Doyle/,2019-09-15 10:31:00,1699000.0,1,1701095.0,2019-08-31,https://www.zillow.com/homedetails/545-Quartz-St-Redwood-City-CA-94062/15573632_zpid/
181,15589817,"8 Colton Ct, Redwood City, CA 94062",94062,37.460464,-122.277282,9.0,10.0,8000.0,2019-12-12 08:00:00,1999,22781.0,4148086.0,4100000.0,Julia Laquer,https://www.zillow.com/profile/JuliaLaquer/,Patrice Horvath,https://www.zillow.com/profile/Patrice-Horvath/,2019-09-06 08:36:00,4298000.0,1,5635440.0,2019-08-31,https://www.zillow.com/homedetails/8-Colton-Ct-Redwood-City-CA-94062/15589817_zpid/
182,118175547,"669 Sylvan Way, Emerald Hills, CA 94062",94062,37.465361,-122.269732,4.0,4.0,2016.0,2019-12-11 00:00:00,2011,6960.0,2149922.0,2125000.0,,,Carlos Aguilar,https://www.zillow.com/profile/user1043558/,2019-11-15 09:15:00,2100000.0,1,1972273.0,2019-10-31,https://www.zillow.com/homedetails/669-Sylvan-Way-Emerald-Hills-CA-94062/118175547_zpid/
183,15575317,"2974 Hastings Ave, Redwood City, CA 94061",94061,37.461856,-122.247614,4.0,3.0,1970.0,2019-12-09 16:00:00,1953,6255.0,1973326.0,1950000.0,Laura Bertolacci,https://www.zillow.com/profile/Laura-Bertolacci/,Alison Williams,https://www.zillow.com/profile/awilliamsrwc/,2019-10-04 07:24:00,1945000.0,1,1924729.0,2019-09-30,https://www.zillow.com/homedetails/2974-Hastings-Ave-Redwood-City-CA-94061/15575317_zpid/
184,15564862,"1135 Harrison Ave, Redwood City, CA 94062",94062,37.475949,-122.240564,4.0,2.0,2082.0,2019-12-06 00:00:00,1945,6751.0,2127883.0,2102000.0,Lynette Crum,https://www.zillow.com/profile/Lynettecrum/,Diana Nemirovsky,https://www.zillow.com/profile/DNemirovsky/,2019-10-24 11:02:00,1998000.0,1,1728652.0,2019-09-30,https://www.zillow.com/homedetails/1135-Harrison-Ave-Redwood-City-CA-94062/15564862_zpid/
185,15571237,"302 Summit Dr, Emerald Hills, CA 94062",94062,37.467305,-122.268295,4.0,3.0,3160.0,2019-12-04 00:00:00,1989,15725.0,1569449.0,1550000.0,,,,,2019-07-07 16:49:00,1799888.0,1,2569728.0,2019-06-30,https://www.zillow.com/homedetails/302-Summit-Dr-Emerald-Hills-CA-94062/15571237_zpid/
186,15575468,"1215 Chesterton Ave, Redwood City, CA 94061",94061,37.464628,-122.24509,4.0,3.0,1983.0,2019-12-03 16:00:00,1953,8193.0,2166999.0,2100000.0,Tom Stynes,https://www.zillow.com/profile/Tom-Stynes/,Alison Williams,https://www.zillow.com/profile/awilliamsrwc/,,,0,1623061.0,2019-11-30,https://www.zillow.com/homedetails/1215-Chesterton-Ave-Redwood-City-CA-94061/15575468_zpid/
187,15575166,"1042 Chesterton Ave, Redwood City, CA 94061",94061,37.462663,-122.24665,3.0,2.0,1250.0,2019-12-02 00:00:00,1953,6198.0,1585830.0,1475000.0,Siobhan O'Sullivan,https://www.zillow.com/profile/SiobhanOSullivan/,,,2019-10-19 07:36:00,1450000.0,1,1518078.0,2019-09-30,https://www.zillow.com/homedetails/1042-Chesterton-Ave-Redwood-City-CA-94061/15575166_zpid/
188,15571856,"3619 Glenwood Ave, Redwood City, CA 94062",94062,37.468148,-122.255132,3.0,2.0,1200.0,2019-11-27 08:00:00,1959,6398.0,1419805.0,1401000.0,Michael Youssef,https://www.zillow.com/profile/Michael-Youssef/,Michael and Mike Verdone,https://www.zillow.com/profile/mcverdone/,2019-10-09 15:51:00,1339888.0,1,1536025.0,2019-09-30,https://www.zillow.com/homedetails/3619-Glenwood-Ave-Redwood-City-CA-94062/15571856_zpid/
189,15571460,"418 Crest Dr, Emerald Hills, CA 94062",94062,37.470403,-122.261915,2.0,1.0,1043.0,2019-11-26 00:00:00,1939,8581.0,1550737.0,1530000.0,,,Andy Tse,https://www.zillow.com/profile/AndyTse/,2019-10-25 09:08:00,1450000.0,1,1412507.0,2019-09-30,https://www.zillow.com/homedetails/418-Crest-Dr-Emerald-Hills-CA-94062/15571460_zpid/
190,15590772,"210 Hardwick Rd, Woodside, CA 94062",94062,37.448327,-122.248059,4.0,3.0,3460.0,2019-11-26 00:00:00,1961,51862.0,3040662.0,3000000.0,DeLeon Team,https://www.zillow.com/profile/DeLeon-Realty/,James Yang,https://www.zillow.com/profile/jamesdyang/,2019-09-09 08:54:00,2988000.0,1,3508713.0,2019-08-31,https://www.zillow.com/homedetails/210-Hardwick-Rd-Woodside-CA-94062/15590772_zpid/
191,15574114,"1007 Valota Rd, Redwood City, CA 94061",94061,37.469848,-122.238864,2.0,1.0,740.0,2019-11-22 16:00:00,1952,3201.0,917741.0,905000.0,Rumana Jabeen,https://www.zillow.com/profile/Rumana-Jabeen/,Allen Nazari,https://www.zillow.com/profile/Allen-Nazari/,2019-07-25 00:22:00,998000.0,1,973990.0,2019-06-30,https://www.zillow.com/homedetails/1007-Valota-Rd-Redwood-City-CA-94061/15574114_zpid/
192,15570851,"1707 Edgewood Rd, Emerald Hills, CA 94062",94062,37.474568,-122.263824,4.0,2.0,2000.0,2019-11-21 00:00:00,1954,19602.0,1901643.0,1875000.0,Dino Virella,https://www.zillow.com/profile/dino992/,Brett Caviness,https://www.zillow.com/profile/BrettCaviness/,2019-05-22 17:29:00,2199995.0,1,2208658.0,2019-04-30,https://www.zillow.com/homedetails/1707-Edgewood-Rd-Emerald-Hills-CA-94062/15570851_zpid/
193,15590208,"11 Wilmington Acres Ct, Emerald Hills, CA 94062",94062,37.45609,-122.260979,4.0,4.0,3630.0,2019-11-19 16:00:00,1995,16709.0,2830376.0,2790000.0,Mark Martinho,https://www.zillow.com/profile/Vabrato/,Clint Moore,https://www.zillow.com/profile/cmoore53/,2019-10-10 18:23:00,2995000.0,1,2984275.0,2019-09-30,https://www.zillow.com/homedetails/11-Wilmington-Acres-Ct-Emerald-Hills-CA-94062/15590208_zpid/
194,15575797,"2674 Briarfield Ave, Redwood City, CA 94061",94061,37.462445,-122.244079,3.0,2.0,1217.0,2019-11-14 00:00:00,1952,6298.0,1522691.0,1500000.0,Samie Goodman,https://www.zillow.com/profile/SamieGoodman/,Chris Cook,https://www.zillow.com/profile/CookHomesBayArea/,2019-10-10 11:44:00,1395000.0,1,1496301.0,2019-09-30,https://www.zillow.com/homedetails/2674-Briarfield-Ave-Redwood-City-CA-94061/15575797_zpid/
195,15575335,"3006 Hastings Ave, Redwood City, CA 94061",94061,37.461446,-122.24807,3.0,2.0,1340.0,2019-11-12 00:00:00,1953,6120.0,1567761.0,1544000.0,Joyce Romeo,https://www.zillow.com/profile/joyceandtatum/,Judy Citron,https://www.zillow.com/profile/Judy-Citron/,2019-10-04 09:14:00,1489000.0,1,1709074.0,2019-09-30,https://www.zillow.com/homedetails/3006-Hastings-Ave-Redwood-City-CA-94061/15575335_zpid/
196,15575817,"2593 Briarfield Ave, Redwood City, CA 94061",94061,37.462563,-122.242979,3.0,2.0,1640.0,2019-11-12 00:00:00,1952,6298.0,1497700.0,1475000.0,,,Kathleen Clifford,https://www.zillow.com/profile/Kathleen-Clifford3/,2019-10-11 13:14:00,1450000.0,1,1644494.0,2019-09-30,https://www.zillow.com/homedetails/2593-Briarfield-Ave-Redwood-City-CA-94061/15575817_zpid/
197,15571402,"783 Barbour Dr, Redwood City, CA 94062",94062,37.470068,-122.257821,3.0,3.0,2050.0,2019-11-08 00:00:00,1968,6899.0,2047069.0,2015000.0,,,Perry Silver,https://www.zillow.com/profile/perrysilver/,2019-10-11 19:14:00,1949000.0,1,1964321.0,2019-09-30,https://www.zillow.com/homedetails/783-Barbour-Dr-Redwood-City-CA-94062/15571402_zpid/
198,15590522,"1010 Eden Bower Ln, Redwood City, CA 94061",94061,37.451114,-122.259573,4.0,3.0,2410.0,2019-11-07 00:00:00,1973,5175.0,2126877.0,2010000.0,Bryan Jacobs,https://www.zillow.com/profile/bryan-jacobs/,Elsa Nguyen,https://www.zillow.com/profile/Elsasellshomes/,2019-05-31 11:23:00,2298000.0,2,1920412.0,2019-05-31,https://www.zillow.com/homedetails/1010-Eden-Bower-Ln-Redwood-City-CA-94061/15590522_zpid/
199,15575322,"2974 Briarfield Ave, Redwood City, CA 94061",94061,37.461419,-122.246901,3.0,2.0,1250.0,2019-11-07 00:00:00,1953,6930.0,1452946.0,1430000.0,Maxine Dumas,https://www.zillow.com/profile/maxine_dumas/,Douglas Andrew Gonzalez,https://www.zillow.com/profile/dgonzalez/,2019-09-27 11:14:00,1299950.0,1,1641540.0,2019-08-31,https://www.zillow.com/homedetails/2974-Briarfield-Ave-Redwood-City-CA-94061/15575322_zpid/
200,15571035,"57 W Summit Dr, Emerald Hills, CA 94062",94062,37.468308,-122.271324,3.0,3.0,1890.0,2019-11-04 16:00:00,1947,9583.0,2032881.0,2000000.0,,,,,,,0,1912743.0,2019-10-31,https://www.zillow.com/homedetails/57-W-Summit-Dr-Emerald-Hills-CA-94062/15571035_zpid/
201,15571034,"59 W Summit Dr, Emerald Hills, CA 94062",94062,37.468212,-122.271145,4.0,3.0,2191.0,2019-11-04 00:00:00,1947,9199.0,2032881.0,2000000.0,,,Alex Lehr,https://www.zillow.com/profile/Alex-Lehr/,2019-09-24 17:43:00,1998000.0,1,2151362.0,2019-08-31,https://www.zillow.com/homedetails/59-W-Summit-Dr-Emerald-Hills-CA-94062/15571034_zpid/
202,15575838,"1257 Connecticut Dr, Redwood City, CA 94061",94061,37.461706,-122.240274,3.0,1.0,1490.0,2019-11-04 00:00:00,1950,9953.0,1651715.0,1625000.0,,,Dennis Loewen,https://www.zillow.com/profile/dennisloewen/,2019-09-30 05:14:00,1399950.0,1,1687408.0,2019-09-30,https://www.zillow.com/homedetails/1257-Connecticut-Dr-Redwood-City-CA-94061/15575838_zpid/
203,15590754,"255 Hardwick Rd, Woodside, CA 94062",94062,37.449684,-122.249248,3.0,3.0,2820.0,2019-11-04 00:00:00,1960,82981.0,3379434.0,2200000.0,Alex Lehr,https://www.zillow.com/profile/Alex-Lehr/,,,2019-09-06 16:44:00,2645000.0,1,3062210.0,2019-08-31,https://www.zillow.com/homedetails/255-Hardwick-Rd-Woodside-CA-94062/15590754_zpid/
204,252364825,"2041 Cordilleras Rd, Emerald Hills, CA 94062",94062,37.473834,-122.272974,4.0,4.0,3620.0,2019-11-01 15:00:00,2019,11025.0,3347485.0,2990000.0,Debbie Sharp,https://www.zillow.com/profile/The-Sharp-Group/,Joyce Romeo,https://www.zillow.com/profile/joyceandtatum/,2019-05-16 13:19:00,3298000.0,2,2874349.0,2019-04-30,https://www.zillow.com/homedetails/2041-Cordilleras-Rd-Emerald-Hills-CA-94062/252364825_zpid/
205,15589907,"527 Sunset Way, Emerald Hills, CA 94062",94062,37.460818,-122.272349,4.0,2.0,2700.0,2019-10-31 08:00:00,1930,17498.0,2491558.0,2450000.0,Adriana Trenev,https://www.zillow.com/profile/AdrianaTrenev1/,,,2019-04-01 10:16:00,2688727.0,2,2374495.0,2019-03-31,https://www.zillow.com/homedetails/527-Sunset-Way-Emerald-Hills-CA-94062/15589907_zpid/
206,15564867,"2126 Jefferson Ave, Redwood City, CA 94062",94062,37.475194,-122.239183,2.0,,1000.0,2019-10-31 00:00:00,1948,5850.0,1220355.0,1200000.0,,,,,2019-09-05 12:02:00,1288000.0,1,1205068.0,2019-08-31,https://www.zillow.com/homedetails/2126-Jefferson-Ave-Redwood-City-CA-94062/15564867_zpid/
207,15574912,"3116 Wessex Way, Redwood City, CA 94061",94061,37.469473,-122.245929,3.0,2.0,1457.0,2019-10-29 15:00:00,1955,5998.0,1739443.0,1710000.0,Denis Dolginov,https://www.zillow.com/profile/Denis-Dolginov/,,,2019-09-10 10:53:00,1598000.0,1,1523218.0,2019-08-31,https://www.zillow.com/homedetails/3116-Wessex-Way-Redwood-City-CA-94061/15574912_zpid/
208,15571221,"2502 Park Rd, Emerald Hills, CA 94062",94062,37.467268,-122.266815,3.0,3.0,1840.0,2019-10-28 00:00:00,1989,3920.0,1654644.0,1625000.0,Kalena Masching,https://www.zillow.com/profile/kalenamasching3/,Lee Ginsburg,https://www.zillow.com/profile/Leesells/,2019-09-13 14:49:00,1598000.0,1,1791965.0,2019-08-31,https://www.zillow.com/homedetails/2502-Park-Rd-Emerald-Hills-CA-94062/15571221_zpid/
209,15589710,"636 Lakemead Way, Emerald Hills, CA 94062",94062,37.462312,-122.268629,4.0,3.0,3388.0,2019-10-25 08:00:00,1988,17450.0,3165140.0,3110000.0,Laura Bertolacci,https://www.zillow.com/profile/Laura-Bertolacci/,Laura Bryant,https://www.zillow.com/profile/Laura-Bryant/,2019-08-30 10:39:00,3200000.0,1,2665524.0,2019-07-31,https://www.zillow.com/homedetails/636-Lakemead-Way-Emerald-Hills-CA-94062/15589710_zpid/
210,15575888,"1256 Windsor Way, Redwood City, CA 94061",94061,37.46086,-122.241573,3.0,1.0,1230.0,2019-10-24 15:00:00,1950,6050.0,1460626.0,1435000.0,Jeff Beltramo,https://www.zillow.com/profile/Jeff-Beltramo/,Cutty Smith,https://www.zillow.com/profile/cutty54/,2019-06-28 16:00:00,1478000.0,1,1580505.0,2019-05-31,https://www.zillow.com/homedetails/1256-Windsor-Way-Redwood-City-CA-94061/15575888_zpid/
211,15570986,"3 Springdale Way, Emerald Hills, CA 94062",94062,37.473506,-122.268965,3.0,2.0,1550.0,2019-10-24 00:00:00,1957,8799.0,1580733.0,1553000.0,,,Brett Mattos,https://www.zillow.com/profile/Brett-Mattos/,2019-09-26 14:20:00,1449000.0,1,1685307.0,2019-08-31,https://www.zillow.com/homedetails/3-Springdale-Way-Emerald-Hills-CA-94062/15570986_zpid/
212,15573966,"1911 Roosevelt Ave, Redwood City, CA 94061",94061,37.467489,-122.239804,2.0,1.0,940.0,2019-10-23 00:00:00,1947,5201.0,1272482.0,1250000.0,Laura Bertolacci,https://www.zillow.com/profile/Laura-Bertolacci/,Maxine Dumas,https://www.zillow.com/profile/maxine_dumas/,2019-10-03 15:44:00,1198000.0,1,1218974.0,2019-09-30,https://www.zillow.com/homedetails/1911-Roosevelt-Ave-Redwood-City-CA-94061/15573966_zpid/
213,15575940,"9 Bennett Rd, Redwood City, CA 94062",94062,37.475846,-122.259584,4.0,3.0,2630.0,2019-10-22 00:00:00,1986,10541.0,2443498.0,2000000.0,Jean Joh - Perisson Real Estate,https://www.zillow.com/profile/jeanjoh/,,,,,0,2172911.0,2019-09-30,https://www.zillow.com/homedetails/9-Bennett-Rd-Redwood-City-CA-94062/15575940_zpid/
214,15591087,"1478 Alameda De Las Pulgas, Redwood City, CA 94061",94061,37.457597,-122.241052,3.0,2.0,1620.0,2019-10-21 00:00:00,1952,6398.0,1588458.0,1560000.0,,,,,2019-09-09 06:28:00,1498000.0,1,1696588.0,2019-08-31,https://www.zillow.com/homedetails/1478-Alameda-De-Las-Pulgas-Redwood-City-CA-94061/15591087_zpid/
215,15575800,"2649 Hastings Ave, Redwood City, CA 94061",94061,37.462782,-122.244086,3.0,1.0,1010.0,2019-10-15 15:00:00,1952,6098.0,1367512.0,1342000.0,Marc Romer,https://www.zillow.com/profile/marcromer/,Greg and Heather Damelio,https://www.zillow.com/profile/Greg-Heather-Damelio/,2019-08-30 14:50:00,1399999.0,1,1313337.0,2019-07-31,https://www.zillow.com/homedetails/2649-Hastings-Ave-Redwood-City-CA-94061/15575800_zpid/
216,111437788,"10 Maloney Ct, Redwood City, CA 94062",94062,37.476768,-122.255257,4.0,4.0,3140.0,2019-10-15 15:00:00,1989,12196.0,2063497.0,2025000.0,Heather Yian Lin,https://www.zillow.com/profile/HeatherLin/,Jackie Cockreham,https://www.zillow.com/profile/jackie-cockreham3/,2019-07-11 14:37:00,2300000.0,1,2538643.0,2019-06-30,https://www.zillow.com/homedetails/10-Maloney-Ct-Redwood-City-CA-94062/111437788_zpid/
217,15574594,"668 Barbour Dr, Redwood City, CA 94062",94062,37.471219,-122.255819,3.0,2.0,2020.0,2019-10-15 15:00:00,1964,5998.0,2025794.0,1988000.0,Jaime Lynn Jones and Julie Mariani Cassel,https://www.zillow.com/profile/Jaime-and-Julie/,Sandy Rostad,https://www.zillow.com/profile/user7604814/,2019-09-06 16:36:00,1988000.0,1,1907525.0,2019-08-31,https://www.zillow.com/homedetails/668-Barbour-Dr-Redwood-City-CA-94062/15574594_zpid/
218,15590285,"825 Canada Rd, Woodside, CA 94062",94062,37.450521,-122.276315,2.0,1.0,870.0,2019-10-15 00:00:00,1949,14375.0,1426615.0,1400000.0,,,,,,,0,1329971.0,2019-09-30,https://www.zillow.com/homedetails/825-Canada-Rd-Woodside-CA-94062/15590285_zpid/
219,15575162,"2903 Mcgarvey Ave, Redwood City, CA 94061",94061,37.46264,-122.2475,3.0,2.0,1250.0,2019-10-11 15:00:00,1953,6825.0,1631238.0,1600000.0,Vicky Yu,https://www.zillow.com/profile/Vicky-Yu/,Jennifer Chen,https://www.zillow.com/profile/Jennifer-Chen-Redfin/,2019-08-23 10:14:00,1798888.0,1,1362873.0,2019-07-31,https://www.zillow.com/homedetails/2903-Mcgarvey-Ave-Redwood-City-CA-94061/15575162_zpid/
220,15575640,"1271 Dewey St, Redwood City, CA 94061",94061,37.46244,-122.239698,4.0,2.0,1710.0,2019-10-11 15:00:00,1951,7200.0,,2295000.0,Fred Oliver,https://www.zillow.com/profile/fred310/,Laura Bertolacci,https://www.zillow.com/profile/Laura-Bertolacci/,2019-09-20 16:15:00,1500000.0,1,,,https://www.zillow.com/homedetails/1271-Dewey-St-Redwood-City-CA-94061/15575640_zpid/
221,15575918,"2603 Carson St, Redwood City, CA 94061",94061,37.459864,-122.240224,3.0,2.0,1060.0,2019-10-11 00:00:00,1951,7274.0,1439946.0,750000.0,,,,,,,0,1370260.0,2019-09-30,https://www.zillow.com/homedetails/2603-Carson-St-Redwood-City-CA-94061/15575918_zpid/
222,15571790,"934 Lakeview Way, Emerald Hills, CA 94062",94062,37.459987,-122.26202,5.0,4.0,3478.0,2019-10-10 00:00:00,1995,7000.0,2355396.0,2310000.0,Amy Anderson-Giugliano,https://www.zillow.com/profile/YourRealtorAmy/,Maureen Mclean,https://www.zillow.com/profile/maureenmcleanteam/,2019-07-24 21:24:00,2495000.0,1,2675127.0,2019-06-30,https://www.zillow.com/homedetails/934-Lakeview-Way-Emerald-Hills-CA-94062/15571790_zpid/
223,15571639,"3707 Hamilton Way, Emerald Hills, CA 94062",94062,37.464014,-122.257557,3.0,3.0,1560.0,2019-10-10 00:00:00,1949,7596.0,1560067.0,1530000.0,,,Sue Woods,https://www.zillow.com/profile/Sue-Woods-WoodsideCA/,2019-05-19 12:53:00,1788000.0,2,1739701.0,2019-04-30,https://www.zillow.com/homedetails/3707-Hamilton-Way-Emerald-Hills-CA-94062/15571639_zpid/
224,15572209,"3708 Brandy Rock Way, Redwood City, CA 94061",94061,37.457595,-122.247984,4.0,2.0,1490.0,2019-10-07 00:00:00,1956,6899.0,1846266.0,1810000.0,,,Victoria Bi,https://www.zillow.com/profile/victoria1210/,2019-09-06 10:22:00,1649000.0,1,1696718.0,2019-08-31,https://www.zillow.com/homedetails/3708-Brandy-Rock-Way-Redwood-City-CA-94061/15572209_zpid/
225,15571771,"3930 Jefferson Ave, Emerald Hills, CA 94062",94062,37.460696,-122.263123,4.0,3.0,2210.0,2019-10-04 00:00:00,1993,8550.0,2482709.0,1725000.0,Mary B Murphy,https://www.zillow.com/profile/Mary-B-Murphy/,,,2019-09-05 11:11:00,1750000.0,1,2023379.0,2019-08-31,https://www.zillow.com/homedetails/3930-Jefferson-Ave-Emerald-Hills-CA-94062/15571771_zpid/
226,15575040,"2334 Vera Ave, Redwood City, CA 94061",94061,37.466513,-122.246798,3.0,2.0,1500.0,2019-10-01 08:00:00,1954,19789.0,2036510.0,1995000.0,,,Suzanne O'Brien,https://www.zillow.com/profile/SOBrien/,2019-08-19 10:40:00,1995000.0,1,1624962.0,2019-07-31,https://www.zillow.com/homedetails/2334-Vera-Ave-Redwood-City-CA-94061/15575040_zpid/
227,15589593,"424 Hillcrest Way, Emerald Hills, CA 94062",94062,37.460696,-122.274478,4.0,2.0,2250.0,2019-10-01 00:00:00,1948,12320.0,1837452.0,1800000.0,,,,,2019-09-16 10:27:00,1695000.0,1,1905083.0,2019-08-31,https://www.zillow.com/homedetails/424-Hillcrest-Way-Emerald-Hills-CA-94062/15589593_zpid/
228,15574615,"425 Upton St, Redwood City, CA 94062",94062,37.472437,-122.248629,3.0,1.0,920.0,2019-09-30 15:00:00,1951,5501.0,1337419.0,1310000.0,Grant Villeneuve,https://www.zillow.com/profile/Grant-Villeneuve/,The Faris-Taylor Team,https://www.zillow.com/profile/matthewtt/,2019-09-02 09:19:00,1198000.0,1,1356636.0,2019-08-31,https://www.zillow.com/homedetails/425-Upton-St-Redwood-City-CA-94062/15574615_zpid/
229,15571635,"3731 Hamilton Way, Emerald Hills, CA 94062",94062,37.46343,-122.258579,3.0,4.0,3680.0,2019-09-30 00:00:00,1980,7309.0,2154165.0,2110000.0,Alex Lehr,https://www.zillow.com/profile/Alex-Lehr/,,,2019-07-11 13:45:00,2199000.0,1,2619344.0,2019-06-30,https://www.zillow.com/homedetails/3731-Hamilton-Way-Emerald-Hills-CA-94062/15571635_zpid/
230,15571037,"610 Lakeview Way, Emerald Hills, CA 94062",94062,37.46738,-122.270558,3.0,3.0,2003.0,2019-09-27 15:00:00,1989,5357.0,1787282.0,1750000.0,Katharine Carroll,https://www.zillow.com/profile/ThereSolveGroup/,Drew Doran,https://www.zillow.com/profile/Drew-Doran7/,2019-07-25 10:38:00,1849000.0,1,1997747.0,2019-06-30,https://www.zillow.com/homedetails/610-Lakeview-Way-Emerald-Hills-CA-94062/15571037_zpid/
231,15575126,"2773 Medford Ave, Redwood City, CA 94061",94061,37.464296,-122.246929,3.0,2.0,1740.0,2019-09-27 08:00:00,1953,6555.0,1608554.0,1575000.0,Robin and Les Wrigley,https://www.zillow.com/profile/wrigley/,Mark Martinho,https://www.zillow.com/profile/Vabrato/,2019-08-22 07:38:00,1600000.0,1,1694032.0,2019-07-31,https://www.zillow.com/homedetails/2773-Medford-Ave-Redwood-City-CA-94061/15575126_zpid/
232,15589942,"782 Glenmere Way, Emerald Hills, CA 94062",94062,37.459971,-122.269035,4.0,4.0,2930.0,2019-09-27 00:00:00,1992,6198.0,2272401.0,2225000.0,,,,,2019-04-26 16:19:00,2498000.0,1,2212805.0,2019-03-31,https://www.zillow.com/homedetails/782-Glenmere-Way-Emerald-Hills-CA-94062/15589942_zpid/
233,15571805,"985 Lakeview Way, Emerald Hills, CA 94062",94062,37.459159,-122.260657,3.0,3.0,2830.0,2019-09-25 00:00:00,1956,41922.0,3524358.0,3450000.0,,,Michael Robles,https://www.zillow.com/profile/Michael-Robles/,2019-07-12 08:15:00,3700000.0,1,2641652.0,2019-06-30,https://www.zillow.com/homedetails/985-Lakeview-Way-Emerald-Hills-CA-94062/15571805_zpid/
234,15574574,"823 Upland Rd, Redwood City, CA 94062",94062,37.470765,-122.255411,4.0,4.0,3400.0,2019-09-18 00:00:00,1956,14448.0,2044846.0,2000000.0,,,,,2019-07-25 20:28:00,2200000.0,1,2591425.0,2019-06-30,https://www.zillow.com/homedetails/823-Upland-Rd-Redwood-City-CA-94062/15574574_zpid/
235,15571833,"3520 Glenwood Ave, Redwood City, CA 94062",94062,37.468948,-122.254148,3.0,2.0,1620.0,2019-09-16 00:00:00,1954,7501.0,1718827.0,1950000.0,Bryan Jacobs,https://www.zillow.com/profile/bryan-jacobs/,,,2019-08-23 12:23:00,1799000.0,1,1644313.0,2019-07-31,https://www.zillow.com/homedetails/3520-Glenwood-Ave-Redwood-City-CA-94062/15571833_zpid/
236,181465712,"305 Jane Dr, Woodside, CA 94062",94062,37.442963,-122.25596,4.0,6.0,5930.0,2019-09-13 00:00:00,1983,126324.0,5422145.0,5300000.0,,,Helen and Brad Miller,https://www.zillow.com/profile/HelenBradMiller/,,,0,5429264.0,2019-08-31,https://www.zillow.com/homedetails/305-Jane-Dr-Woodside-CA-94062/181465712_zpid/
237,15571532,"707 Vista Dr, Emerald Hills, CA 94062",94062,37.466275,-122.258699,3.0,3.0,2890.0,2019-09-10 15:00:00,1997,26689.0,2589408.0,2450000.0,David Young,https://www.zillow.com/profile/David-Young/,Kalina Wasman,https://www.zillow.com/profile/kalinawasman/,2019-08-17 07:51:00,2250000.0,1,2348792.0,2019-07-31,https://www.zillow.com/homedetails/707-Vista-Dr-Emerald-Hills-CA-94062/15571532_zpid/
238,15574996,"614 Lancaster Way, Redwood City, CA 94061",94061,37.468578,-122.247813,2.0,1.0,1250.0,2019-09-10 15:00:00,1952,5500.0,1432788.0,1400000.0,Jean Isaacson,https://www.zillow.com/profile/JeanIsaacson/,Kathy and Colleen,https://www.zillow.com/profile/Kathy-and-Colleen/,2019-08-11 17:39:00,1398000.0,1,1536936.0,2019-07-31,https://www.zillow.com/homedetails/614-Lancaster-Way-Redwood-City-CA-94061/15574996_zpid/
239,303889609,"4036 Jefferson Ave, Emerald Hills, CA 94062",94062,37.458812,-122.265245,,,,2019-09-09 08:00:00,-1,7927.0,1767813.0,2505000.0,Janet Pepe Davis,https://www.zillow.com/profile/janetpepedavis/,Prashant Vanka,https://www.zillow.com/profile/doorsadvisors/,,,0,,,https://www.zillow.com/homedetails/4036-Jefferson-Ave-Emerald-Hills-CA-94062/303889609_zpid/
240,2082824737,"4036 Jefferson, Redwood City, CA 94062",94062,37.458855,-122.265266,4.0,4.0,1983.0,2019-09-06 15:00:00,-1,-1.0,2564915.0,2505000.0,,,Danny Burgess,https://www.zillow.com/profile/Doors-Advisors/,,,0,2294529.0,2019-08-31,https://www.zillow.com/homedetails/4036-Jefferson-Redwood-City-CA-94062/2082824737_zpid/
241,15572267,"681 Emerald Hill Rd, Redwood City, CA 94061",94061,37.458316,-122.256102,3.0,2.0,1300.0,2019-09-05 15:00:00,1956,7196.0,1638468.0,1600000.0,Diane Dwyer,https://www.zillow.com/profile/Diane-Dwyer-Sharp/,Caroline Dinsmore,https://www.zillow.com/profile/Caroline-Dinsmore/,2019-07-26 16:16:00,1600000.0,1,1587307.0,2019-06-30,https://www.zillow.com/homedetails/681-Emerald-Hill-Rd-Redwood-City-CA-94061/15572267_zpid/
